Street Address, Street Name, Zipcode, City, State, Latitude, Longitude, Price, Listing Type, Home Type, ZPID, Area, Bedrooms, Bathrooms, Unit, Floor, Block, Time on Zillow, Is Non-Owner Occupied, Is Zillow Owned, Days on Zillow, Is Showcase Listing
650 Columbus Ave #434, 650 Columbus Ave #434, 02118, Boston, MA, 42.33859, -71.08312, 3300, FOR_RENT, APARTMENT, 440330719, 720, 1, 1, # 434, 6, 7, 3200409000, true, false, -1, false
8 Winter St #1103, 8 Winter St #1103, 02108, Boston, MA, 42.35552, -71.06166, 3200, FOR_RENT, APARTMENT, 2058145112, 608, 1, 1, # 1103, 10, 3, 4057882000, true, false, -1, false
475 Shawmut Ave APT 2, 475 Shawmut Ave APT 2, 02118, Boston, MA, 42.338947, -71.07589, 3500, FOR_RENT, APARTMENT, 2079157994, 950, 2, 1, Apt 2, 2, 5, 351695000, true, false, -1, false
780 William T Morrissey Blvd #1B-1BA-644SQFT, 780 William T Morrissey Blvd #1B-1BA-644SQFT, 02122, Dorchester, MA, 42.295498, -71.046715, 3158, FOR_RENT, APARTMENT, 439777838, 644, 1, 1, # 1B-1Ba-644Sqft, 10, 1, 4477663000, true, false, -1, false
1079 Commonwealth Ave APT 532, 1079 Commonwealth Ave APT 532, 02215, Boston, MA, 42.352787, -71.12451, 4700, FOR_RENT, APARTMENT, 440956161, 1660, 3, 2, Apt 532, 10, 6, 1646314000, true, false, -1, false
130-140 Bowdoin St #1106, 130-140 Bowdoin St #1106, 02108, Boston, MA, 42.35862, -71.06247, 3000, FOR_RENT, APARTMENT, 2054752511, 570, 1, 1, # 1106, 4, 4, 11952204000, true, false, -1, false
1482 Tremont St #305, 1482 Tremont St #305, 02120, Roxbury Crossing, MA, 42.33176, -71.09868, 4566, FOR_RENT, APARTMENT, 2053079409, 948, 2, 1, # 305, 5, 9, 8874716000, true, false, -1, false
43 Smith St #S024C, 43 Smith St #S024C, 02120, Roxbury Crossing, MA, 42.333973, -71.09865, 5400, FOR_RENT, APARTMENT, 439928634, 1444, 3, 2, # S024C, 8, 2, 4057841000, true, false, -1, false
106 Tremont St #116001, 106 Tremont St #116001, 02135, Brighton, MA, 42.350887, -71.1733, 2895, FOR_RENT, APARTMENT, 402689450, 1000, 2, 1, # 116001, 10, 6, 7079129000, true, false, -1, false
160 E Berkeley St APT 515, 160 E Berkeley St APT 515, 02118, Boston, MA, 42.34383, -71.06467, 5400, FOR_RENT, APARTMENT, 2126266428, 1200, 3, 1, Apt 515, 4, 8, 4936586000, true, false, -1, false
40 Malvern St #502, 40 Malvern St #502, 02134, Allston, MA, 42.354015, -71.12504, 4150, FOR_RENT, APARTMENT, 2072797408, 840, 2, 2, # 502, 1, 4, 4238083000, true, false, -1, false
56-58 Selkirk Rd #56-2, 56-58 Selkirk Rd #56-2, 02135, Brighton, MA, 42.33929, -71.149704, 2700, FOR_RENT, APARTMENT, 441843002, 860, 2, 1, # 56-2, 9, 8, 276960000, true, false, -1, false
36 Quint Ave APT 3, 36 Quint Ave APT 3, 02134, Allston, MA, 42.352024, -71.13385, 2495, FOR_RENT, APARTMENT, 2106495376, undefined, 1, 1, Apt 3, 5, 3, 9923059000, true, false, -1, false
99 Border St #310, 99 Border St #310, 02128, Boston, MA, 42.372364, -71.041245, 3150, FOR_RENT, APARTMENT, 439487695, 835, 2, 1, # 310, 1, 2, 5005729000, true, false, -1, false
223 Harvard Ave APT 8, 223 Harvard Ave APT 8, 02134, Allston, MA, 42.349262, -71.13053, 3400, FOR_RENT, APARTMENT, 59086562, 1000, 2, 1, Apt 8, 2, 5, 12945796000, true, false, -1, false
80 Fuller St #FDAF547CA, 80 Fuller St #FDAF547CA, 02124, Dorchester Center, MA, 42.28238, -71.06918, 4500, FOR_RENT, APARTMENT, 350771339, 1300, 3, 2, # fdaf547ca, 1, 8, 12956536000, true, false, -1, false
9 Gardner Ter #150454, 9 Gardner Ter #150454, 02134, Allston, MA, 42.35294, -71.1261, 4200, FOR_RENT, APARTMENT, 2076974112, 2000, 3, 2, # 150454, 4, 6, 10458751000, true, false, -1, false
16 Highgate St #303, 16 Highgate St #303, 02134, Allston, MA, 42.35538, -71.131615, 3895, FOR_RENT, APARTMENT, 2059263526, 845, 2, 2, # 303, 4, 10, 2928786000, true, false, -1, false
917 Bennington St #206, 917 Bennington St #206, 02128, Boston, MA, 42.385426, -71.00984, 3200, FOR_RENT, APARTMENT, 2071232908, 1196, 2, 2, # 206, 7, 4, 6537654000, true, false, -1, false
1 Ashford Ct #505, 1 Ashford Ct #505, 02134, Allston, MA, 42.354168, -71.12616, 3500, FOR_RENT, APARTMENT, 2053087523, undefined, 1, 1, # 505, 4, 4, 23311061000, true, false, -1, false
775 Morton St #C722AE6CF, 775 Morton St #C722AE6CF, 02126, Mattapan, MA, 42.284348, -71.0922, 2950, FOR_RENT, APARTMENT, 2052856157, 950, 2, 1, # c722ae6cf, 9, 9, 21926469000, true, false, -1, false
3 Carol Ave #15-10, 3 Carol Ave #15-10, 02135, Brighton, MA, 42.345207, -71.14093, 3095, FOR_RENT, APARTMENT, 440948116, undefined, 2, 1, # 15-10, 3, 6, 1729061000, true, false, -1, false
484 Tremont St #72, 484 Tremont St #72, 02116, Boston, MA, 42.34593, -71.06907, 2805, FOR_RENT, APARTMENT, 440264636, 660, 1, 1, # 72, 5, 3, 3284075000, true, false, -1, false
72 Gardner St #F1, 72 Gardner St #F1, 02134, Allston, MA, 42.353912, -71.12727, 4395, FOR_RENT, APARTMENT, 2103242614, 1000, 4, 2, # F1, 9, 4, 23497241000, true, false, -1, false
735 Truman Pkwy #2675068, 735 Truman Pkwy #2675068, 02136, Hyde Park, MA, 42.251705, -71.12055, 2510, FOR_RENT, APARTMENT, 2063194826, 715, 1, 1, # 2675068, 2, 1, 266311000, true, false, -1, false
11 Royce Rd APT 4, 11 Royce Rd APT 4, 02134, Boston, MA, 42.34899, -71.13182, 1950, FOR_RENT, APARTMENT, 2126747455, undefined, 0, 1, Apt 4, 1, 8, 804969000, true, false, -1, false
740 E 7th St APT 18, 740 E 7th St APT 18, 02127, Boston, MA, 42.3326, -71.03075, 2450, FOR_RENT, APARTMENT, 2060111632, undefined, 1, 1, Apt 18, 1, 8, 4428060000, true, false, -1, false
245 Sumner St #104, 245 Sumner St #104, 02128, Boston, MA, 42.36793, -71.03844, 3475, FOR_RENT, APARTMENT, 2078574857, 975, 2, 2, # 104, 6, 9, 4946987000, true, false, -1, false
455 E 1st St #402, 455 E 1st St #402, 02127, Boston, MA, 42.337894, -71.04202, 4000, FOR_RENT, APARTMENT, 2095373617, 1000, 1, 1, # 402, 6, 5, 10634368000, true, false, -1, false
4 Elko St #810, 4 Elko St #810, 02135, Brighton, MA, 42.349636, -71.149414, 3200, FOR_RENT, APARTMENT, 2078832491, 795, 3, 1, # 810, 10, 8, 1368977000, true, false, -1, false
33 Maverick Sq #301, 33 Maverick Sq #301, 02128, Boston, MA, 42.36934, -71.039024, 2800, FOR_RENT, APARTMENT, 401813418, 724, 2, 1, # 301, 4, 10, 7998975000, true, false, -1, false
111 Atlantic Ave APT 220, 111 Atlantic Ave APT 220, 02109, Boston, MA, 42.361366, -71.052635, 3425, FOR_RENT, APARTMENT, 402099861, 720, 1, 1, Apt 220, 5, 7, 421931000, true, false, -1, false
1970 Commonwealth Ave #1980-32, 1970 Commonwealth Ave #1980-32, 02135, Brighton, MA, 42.338963, -71.15689, 2100, FOR_RENT, APARTMENT, 441821538, 900, 1, 1, # 1980-32, 10, 5, 1373948000, true, false, -1, false
95 Endicott St #4A97F72DB, 95 Endicott St #4A97F72DB, 02113, Boston, MA, 42.364254, -71.05713, 3600, FOR_RENT, APARTMENT, 350201343, 1400, 3, 2, # 4a97f72db, 2, 4, 13548618000, true, false, -1, false
11 Woodside Ave #3A, 11 Woodside Ave #3A, 02130, Jamaica Plain, MA, 42.309742, -71.10351, 3100, FOR_RENT, APARTMENT, 441897289, 1069, 3, 1, # 3A, 9, 7, 62036000, true, false, -1, false
9-11 Moraine St #2, 9-11 Moraine St #2, 02130, Boston, MA, 42.319946, -71.112434, 4300, FOR_RENT, APARTMENT, 339517786, 1395, 3, 1, # 2, 6, 8, 73878000, true, false, -1, false
124 Marine Rd APT 1, 124 Marine Rd APT 1, 02127, South Boston, MA, 42.330833, -71.034134, 3400, FOR_RENT, APARTMENT, 2083409717, 1200, 2, 1, Apt 1, 3, 3, 92852000, true, false, -1, false
49 Leyden St #1, 49 Leyden St #1, 02128, East Boston, MA, 42.389904, -71.01055, 3300, FOR_RENT, APARTMENT, 318226986, 1085, 2, 2, # 1, 8, 4, 102918000, true, false, -1, false
78 Hillside St APT 3, 78 Hillside St APT 3, 02120, Boston, MA, 42.3303, -71.10269, 6200, FOR_RENT, TOWNHOUSE, 2108994418, 1200, 4, 1, Apt 3, 3, 7, 183355000, true, false, -1, false
39 Hemenway St APT 1, 39 Hemenway St APT 1, 02115, Boston, MA, 42.34553, -71.089714, 8000, FOR_RENT, APARTMENT, 59176969, 9999, 4, 2, Apt 1, 6, 6, 161978000, true, false, -1, false
99 Salem St #2, 99 Salem St #2, 02113, Boston, MA, 42.363914, -71.05554, 3200, FOR_RENT, APARTMENT, 2077460838, 575, 2, 1, # 2, 1, 4, 154513000, true, false, -1, false
298 Commonwealth Ave APT 202, 298 Commonwealth Ave APT 202, 02115, Boston, MA, 42.350437, -71.084885, 3300, FOR_RENT, APARTMENT, 59177075, 512, 1, 1, Apt 202, 8, 10, 178174000, true, false, -1, false
185 Hillside St, 185 Hillside St, 02120, Mission Hill, MA, 42.33197, -71.10816, 8000, FOR_RENT, TOWNHOUSE, 2100555662, 9999, 5, 3, , 1, 10, 340607000, true, false, -1, false
128 Roxbury St, 128 Roxbury St, 02119, Boston, MA, 42.33026, -71.08848, 8000, FOR_RENT, TOWNHOUSE, 2085952751, 9999, 5, 3, , 5, 4, 247680000, true, false, -1, false
18 Gerald Rd #1, 18 Gerald Rd #1, 02135, Brighton, MA, 42.340767, -71.160255, 11200, FOR_RENT, APARTMENT, 441700635, 2200, 6, 3, # 1, 4, 3, 942770000, true, false, -1, false
2 Lamson Ct #1B, 2 Lamson Ct #1B, 02128, Boston, MA, 42.36624, -71.0329, 5500, FOR_RENT, APARTMENT, 441824105, 1700, 4, 3, # 1B, 9, 6, 348175000, true, false, -1, false
190 Green St, 190 Green St, 02130, Boston, MA, 42.309963, -71.10543, 2695, FOR_RENT, APARTMENT, 59133747, 625, 1, 1, , 8, 8, 250514000, true, false, -1, false
41 Hobson St #2, 41 Hobson St #2, 02135, Brighton, MA, 42.354237, -71.16179, 4800, FOR_RENT, APARTMENT, 2119159270, 9999, 5, 2, # 2, 6, 10, 20473278000, true, false, -1, false
41 Grove St #3A, 41 Grove St #3A, 02114, Boston, MA, 42.359768, -71.06882, 3800, FOR_RENT, APARTMENT, 2080623051, 725, 2, 1, # 3A, 5, 1, 258780000, true, false, -1, false
43 Bennett St #2, 43 Bennett St #2, 02135, Brighton, MA, 42.351658, -71.15521, 5000, FOR_RENT, APARTMENT, 342130488, 9999, 5, 3, # 2, 1, 9, 20391631000, true, false, -1, false
130 Glenville Ave #1A, 130 Glenville Ave #1A, 02134, Allston, MA, 42.34905, -71.137085, 3300, FOR_RENT, APARTMENT, 441774355, 1200, 3, 1, # 1A, 2, 4, 599846000, true, false, -1, false
35 Falkland St #1, 35 Falkland St #1, 02135, Brighton, MA, 42.35537, -71.15844, 3300, FOR_RENT, APARTMENT, 2079151025, 9999, 3, 1, # 1, 8, 2, 15980814000, true, false, -1, false
6 Harvard Ter #1, 6 Harvard Ter #1, 02134, Allston, MA, 42.353886, -71.13256, 4200, FOR_RENT, APARTMENT, 2095067346, 9999, 3, 2, # 1, 9, 10, 11311801000, true, false, -1, false
155 Euston Rd #14, 155 Euston Rd #14, 02135, Brighton, MA, 42.3441, -71.14518, 2575, FOR_RENT, APARTMENT, 344410835, 850, 0, 1, # 14, 2, 6, 19230173000, true, false, -1, false
20 Murdock St #2, 20 Murdock St #2, 02135, Brighton, MA, 42.350796, -71.1478, 5200, FOR_RENT, APARTMENT, 2085763960, 9999, 5, 3, # 2, 6, 7, 11154695000, true, false, -1, false
26 Pratt St #1, 26 Pratt St #1, 02134, Allston, MA, 42.355225, -71.128784, 5000, FOR_RENT, APARTMENT, 2078123540, 9999, 4, 2, # 1, 3, 4, 19274069000, true, false, -1, false
10 Arlington St #1, 10 Arlington St #1, 02135, Brighton, MA, 42.351784, -71.152405, 4700, FOR_RENT, APARTMENT, 343870220, 9999, 5, 4, # 1, 4, 3, 19695531000, true, false, -1, false
22 Sparhawk St #2, 22 Sparhawk St #2, 02135, Brighton, MA, 42.351074, -71.15083, 5250, FOR_RENT, APARTMENT, 2080334566, 9999, 5, 3, # 2, 2, 2, 11414874000, true, false, -1, false
1522 Commonwealth Ave #2, 1522 Commonwealth Ave #2, 02135, Brighton, MA, 42.345413, -71.14116, 4700, FOR_RENT, APARTMENT, 344606126, 9999, 4, 2, # 2, 2, 8, 19103916000, true, false, -1, false
50 Brooks St #2, 50 Brooks St #2, 02135, Brighton, MA, 42.355804, -71.16229, 3200, FOR_RENT, APARTMENT, 2105900077, 9999, 3, 1, # 2, 7, 1, 19261242000, true, false, -1, false
91 Parsons St #1, 91 Parsons St #1, 02135, Brighton, MA, 42.35353, -71.15388, 5000, FOR_RENT, APARTMENT, 2103441765, 9999, 5, 2, # 1, 2, 2, 13132530000, true, false, -1, false
26 Easton St #3, 26 Easton St #3, 02134, Allston, MA, 42.36021, -71.13014, 3100, FOR_RENT, APARTMENT, 343720104, 9999, 0, 1, # 3, 3, 10, 19781404000, true, false, -1, false
229 Chestnut Hill Ave #1, 229 Chestnut Hill Ave #1, 02135, Brighton, MA, 42.33992, -71.1557, 5800, FOR_RENT, APARTMENT, 2105631522, 1400, 4, 2, # 1, 10, 3, 3381763000, true, false, -1, false
21 Ransom Rd #2, 21 Ransom Rd #2, 02135, Brighton, MA, 42.343445, -71.144936, 4500, FOR_RENT, APARTMENT, 2106015417, 9999, 4, 2, # 2, 3, 8, 11145561000, true, false, -1, false
25 Murdock St FLOOR 1, 25 Murdock St FLOOR 1, 02135, Brighton, MA, 42.350636, -71.14732, 4850, FOR_RENT, APARTMENT, 344711148, 9999, 4, 2, Floor 1, 10, 6, 19004251000, true, false, -1, false
1100 Vfw Pkwy #3306, 1100 Vfw Pkwy #3306, 02132, West Roxbury, MA, 42.284, -71.17139, 2400, FOR_RENT, APARTMENT, 441822795, 738, 1, 1, # 3306, 8, 9, 352844000, true, false, -1, false
46 Donnybrook Rd #2, 46 Donnybrook Rd #2, 02135, Brighton, MA, 42.354378, -71.16065, 4400, FOR_RENT, APARTMENT, 350741243, 9999, 4, 2, # 2, 10, 4, 12969460000, true, false, -1, false
11 Oakland St #1, 11 Oakland St #1, 02135, Brighton, MA, 42.349712, -71.15762, 3600, FOR_RENT, APARTMENT, 2078285887, 9999, 3, 1, # 1, 6, 8, 15903523000, true, false, -1, false
64 Wallingford Rd #2, 64 Wallingford Rd #2, 02135, Brighton, MA, 42.34363, -71.15155, 4400, FOR_RENT, APARTMENT, 2057850820, 9999, 4, 2, # 2, 2, 4, 15916744000, true, false, -1, false
35 Orkney Rd APT 3, 35 Orkney Rd APT 3, 02135, Brighton, MA, 42.33716, -71.149475, 4400, FOR_RENT, APARTMENT, 2108826138, 9999, 4, 2, Apt 3, 7, 6, 15980652000, true, false, -1, false
44 Gardena St #3, 44 Gardena St #3, 02135, Brighton, MA, 42.35381, -71.14823, 4000, FOR_RENT, APARTMENT, 347121962, 9999, 3, 2, # 3, 3, 6, 17276644000, true, false, -1, false
9-11 Burney St #407, 9-11 Burney St #407, 02120, Roxbury Crossing, MA, 42.33165, -71.09968, 3250, FOR_RENT, APARTMENT, 2054773005, 577, 1, 1, # 407, 6, 5, 1125070000, true, false, -1, false
9 Lothrop St #1, 9 Lothrop St #1, 02135, Brighton, MA, 42.360226, -71.14549, 3400, FOR_RENT, APARTMENT, 2095302800, 9999, 3, 1, # 1, 9, 3, 11837576000, true, false, -1, false
109 Lanark Rd #1, 109 Lanark Rd #1, 02135, Brighton, MA, 42.340828, -71.148384, 4300, FOR_RENT, APARTMENT, 351631834, 9999, 4, 1, # 1, 5, 9, 11835617000, true, false, -1, false
36 Arlington St #1, 36 Arlington St #1, 02135, Brighton, MA, 42.351967, -71.15346, 4700, FOR_RENT, APARTMENT, 2096716859, 9999, 5, 4, # 1, 6, 7, 19103312000, true, false, -1, false
96 Linden St APT 3, 96 Linden St APT 3, 02134, Allston, MA, 42.351467, -71.12993, 2600, FOR_RENT, APARTMENT, 59087925, 613, 1, 1, Apt 3, 5, 9, 2601483000, true, false, -1, false
605 E 3rd St #1, 605 E 3rd St #1, 02127, Boston, MA, 42.336357, -71.03588, 4325, FOR_RENT, APARTMENT, 2080565628, 1000, 3, 1, # 1, 5, 1, 441059000, true, false, -1, false
18 Claymoss Rd #2, 18 Claymoss Rd #2, 02135, Brighton, MA, 42.34359, -71.144745, 4400, FOR_RENT, APARTMENT, 2101654932, 9999, 4, 2, # 2, 6, 9, 15643265000, true, false, -1, false
6 Sparhawk St #10, 6 Sparhawk St #10, 02135, Brighton, MA, 42.35029, -71.14842, 4800, FOR_RENT, APARTMENT, 344710204, 9999, 4, 2, # 10, 4, 3, 19004820000, true, false, -1, false
30 Raymond St #36, 30 Raymond St #36, 02134, Allston, MA, 42.361786, -71.13405, 5400, FOR_RENT, APARTMENT, 343719664, 9999, 5, 3, # 36, 1, 5, 19781714000, true, false, -1, false
25 Eulita Ter #2, 25 Eulita Ter #2, 02135, Brighton, MA, 42.34633, -71.15285, 4300, FOR_RENT, APARTMENT, 341917586, 9999, 4, 2, # 2, 2, 9, 20473589000, true, false, -1, false
24 Tremont St #1, 24 Tremont St #1, 02135, Brighton, MA, 42.349987, -71.16947, 3400, FOR_RENT, APARTMENT, 353473389, 9999, 3, 1, # 1, 3, 4, 10030769000, true, false, -1, false
34 Mapleton St #1, 34 Mapleton St #1, 02135, Brighton, MA, 42.35215, -71.14958, 4200, FOR_RENT, APARTMENT, 2058417970, 9999, 4, 2, # 1, 1, 9, 15980966000, true, false, -1, false
11 Bennett St #2, 11 Bennett St #2, 02135, Brighton, MA, 42.35133, -71.15304, 5400, FOR_RENT, APARTMENT, 342129322, 9999, 5, 4, # 2, 4, 7, 20391982000, true, false, -1, false
38 Murdock St #2, 38 Murdock St #2, 02135, Brighton, MA, 42.35112, -71.14741, 3450, FOR_RENT, APARTMENT, 341547208, 9999, 3, 1, # 2, 2, 5, 20739361000, true, false, -1, false
223 Harrison Ave #2, 223 Harrison Ave #2, 02111, Boston, MA, 42.34781, -71.06289, 2300, FOR_RENT, APARTMENT, 2070060479, 700, 1, 1, # 2, 8, 8, 506300000, true, false, -1, false
10 Mohawk St #A, 10 Mohawk St #A, 02127, Boston, MA, 42.328896, -71.05555, 3600, FOR_RENT, TOWNHOUSE, 441823826, 1542, 2, 2, # A, 4, 6, 349513000, true, false, -1, false
45 Falkland St #2, 45 Falkland St #2, 02135, Boston, MA, 42.35573, -71.15856, 4900, FOR_RENT, APARTMENT, 2126183750, 9999, 5, 2, # 2, 9, 6, 14425787000, true, false, -1, false
75 Alleghany St #1, 75 Alleghany St #1, 02120, Boston, MA, 42.331406, -71.10145, 15200, FOR_RENT, APARTMENT, 2091992781, 3500, 8, 3, # 1, 8, 7, 754438000, true, false, -1, false
10 Eulita Ter #1, 10 Eulita Ter #1, 02135, Boston, MA, 42.346626, -71.152794, 3600, FOR_RENT, APARTMENT, 2126183753, 9999, 3, 2, # 1, 3, 4, 15904014000, true, false, -1, false
40 Falkland St #1, 40 Falkland St #1, 02135, Brighton, MA, 42.355408, -71.158905, 5000, FOR_RENT, APARTMENT, 2080369785, 9999, 5, 2, # 1, 6, 2, 15979316000, true, false, -1, false
1536 Commonwealth Ave #2, 1536 Commonwealth Ave #2, 02135, Brighton, MA, 42.345043, -71.1414, 4700, FOR_RENT, APARTMENT, 2116940881, 9999, 4, 2, # 2, 10, 10, 19263465000, true, false, -1, false
8 Gordon St #6, 8 Gordon St #6, 02134, Allston, MA, 42.353497, -71.14076, 5200, FOR_RENT, APARTMENT, 343718969, 9999, 4, 2, # 6, 4, 4, 19781851000, true, false, -1, false
60 Wallingford Rd #2, 60 Wallingford Rd #2, 02135, Brighton, MA, 42.343483, -71.15138, 4300, FOR_RENT, APARTMENT, 2106156260, 9999, 4, 2, # 2, 10, 10, 20914120000, true, false, -1, false
4 Woodmont St #1, 4 Woodmont St #1, 02135, Brighton, MA, 42.356636, -71.162575, 4300, FOR_RENT, APARTMENT, 340652308, 9999, 4, 2, # 1, 7, 6, 20917167000, true, false, -1, false
39 Oakland St #2, 39 Oakland St #2, 02135, Brighton, MA, 42.350574, -71.15773, 5200, FOR_RENT, APARTMENT, 348041946, 9999, 4, 2, # 2, 5, 6, 15979871000, true, false, -1, false
61 Oak Square Ave #1, 61 Oak Square Ave #1, 02135, Brighton, MA, 42.35182, -71.16349, 3200, FOR_RENT, APARTMENT, 2058927175, 9999, 3, 1, # 1, 7, 3, 15917218000, true, false, -1, false
8 Corinne Rd #1, 8 Corinne Rd #1, 02135, Brighton, MA, 42.35551, -71.1594, 3200, FOR_RENT, APARTMENT, 2057146945, 9999, 3, 1, # 1, 3, 9, 15905552000, true, false, -1, false
2 Bennett St #1, 2 Bennett St #1, 02135, Brighton, MA, 42.350906, -71.15242, 3150, FOR_RENT, APARTMENT, 344237847, 9999, 3, 1, # 1, 5, 9, 19262820000, true, false, -1, false
21 Portsmouth St APT 1, 21 Portsmouth St APT 1, 02135, Brighton, MA, 42.36007, -71.14448, 5200, FOR_RENT, APARTMENT, 344136330, undefined, 4, 2, Apt 1, 9, 10, 19275318000, true, false, -1, false
42 Easton St #2, 42 Easton St #2, 02134, Allston, MA, 42.359776, -71.13061, 3400, FOR_RENT, APARTMENT, 374837055, 9999, 3, 1, # 2, 6, 3, 8908757000, true, false, -1, false
55 Easton St #1, 55 Easton St #1, 02134, Allston, MA, 42.359806, -71.13131, 3400, FOR_RENT, APARTMENT, 2095336816, 99999, 3, 1, # 1, 10, 2, 10203916000, true, false, -1, false
37 Blenford Rd #2, 37 Blenford Rd #2, 02135, Brighton, MA, 42.344913, -71.15072, 4500, FOR_RENT, APARTMENT, 351630838, 9999, 4, 2, # 2, 3, 6, 11837163000, true, false, -1, false
7 Dickinson Rd #1, 7 Dickinson Rd #1, 02135, Brighton, MA, 42.348495, -71.16147, 3200, FOR_RENT, APARTMENT, 2079921132, 9999, 3, 1, # 1, 6, 8, 15905840000, true, false, -1, false
29 Wilson Park #3, 29 Wilson Park #3, 02135, Brighton, MA, 42.340942, -71.145454, 4400, FOR_RENT, APARTMENT, 2098437876, 9999, 4, 2, # 3, 3, 2, 19104214000, true, false, -1, false
60 Hobart St #1, 60 Hobart St #1, 02135, Brighton, MA, 42.35492, -71.16011, 3300, FOR_RENT, APARTMENT, 2106063366, 9999, 3, 1, # 1, 3, 3, 20739559000, true, false, -1, false
48 Tremont St #1, 48 Tremont St #1, 02135, Brighton, MA, 42.35017, -71.170586, 3400, FOR_RENT, APARTMENT, 2065463388, 9999, 3, 1, # 1, 5, 4, 10458437000, true, false, -1, false
180 Faneuil St #3, 180 Faneuil St #3, 02135, Brighton, MA, 42.354122, -71.15743, 5500, FOR_RENT, APARTMENT, 2064325810, 9999, 5, 2, # 3, 6, 5, 13661411000, true, false, -1, false
64 Hobart St #1, 64 Hobart St #1, 02135, Brighton, MA, 42.355007, -71.16047, 3200, FOR_RENT, APARTMENT, 2098646402, 9999, 3, 1, # 1, 3, 7, 15916927000, true, false, -1, false
39 Blenford Rd #1, 39 Blenford Rd #1, 02135, Boston, MA, 42.34472, -71.15061, 3300, FOR_RENT, APARTMENT, 2091813620, 9999, 3, 1, # 1, 3, 10, 15980037000, true, false, -1, false
17 Sparhawk St #4, 17 Sparhawk St #4, 02135, Brighton, MA, 42.35121, -71.149925, 4800, FOR_RENT, APARTMENT, 344710760, 9999, 4, 2, # 4, 6, 3, 19004394000, true, false, -1, false
30 Glencoe St #1, 30 Glencoe St #1, 02135, Brighton, MA, 42.354485, -71.14807, 3800, FOR_RENT, APARTMENT, 2059287936, 9999, 3, 2, # 1, 1, 8, 15981561000, true, false, -1, false
3 Glenley Ter #1, 3 Glenley Ter #1, 02135, Brighton, MA, 42.34836, -71.17, 5900, FOR_RENT, APARTMENT, 2080549039, 9999, 6, 3, # 1, 1, 8, 17276880000, true, false, -1, false
12 Shannon St #1, 12 Shannon St #1, 02135, Brighton, MA, 42.346916, -71.14921, 3200, FOR_RENT, APARTMENT, 341152888, 9999, 3, 1, # 1, 7, 10, 20815053000, true, false, -1, false
9 Sparhawk St #2, 9 Sparhawk St #2, 02135, Brighton, MA, 42.350853, -71.148575, 5400, FOR_RENT, APARTMENT, 2112587867, 9999, 4, 3, # 2, 2, 4, 12885159000, true, false, -1, false
41 Gardena St #2, 41 Gardena St #2, 02135, Brighton, MA, 42.353584, -71.148705, 3600, FOR_RENT, APARTMENT, 2105709706, 9999, 3, 1, # 2, 10, 7, 14426054000, true, false, -1, false
11 Dunboy St #2, 11 Dunboy St #2, 02135, Brighton, MA, 42.3525, -71.16462, 3300, FOR_RENT, APARTMENT, 2099041036, 9999, 3, 1, # 2, 6, 4, 15903735000, true, false, -1, false
14 Sparhawk St #2, 14 Sparhawk St #2, 02135, Brighton, MA, 42.350616, -71.149666, 4800, FOR_RENT, APARTMENT, 2107197325, 9999, 4, 2, # 2, 8, 9, 18581423000, true, false, -1, false
77 Colborne Rd #2, 77 Colborne Rd #2, 02135, Brighton, MA, 42.34426, -71.14786, 3000, FOR_RENT, APARTMENT, 344191008, 9999, 2, 1, # 2, 10, 7, 19264910000, true, false, -1, false
48 Cummings Rd APT 1, 48 Cummings Rd APT 1, 02135, Brighton, MA, 42.34094, -71.14511, 5000, FOR_RENT, APARTMENT, 2121269463, 9999, 5, 2, Apt 1, 4, 4, 19262172000, true, false, -1, false
131 Brooks St #1, 131 Brooks St #1, 02135, Brighton, MA, 42.353096, -71.16336, 4800, FOR_RENT, APARTMENT, 350092021, 9999, 4, 2, # 1, 1, 8, 13660168000, true, false, -1, false
80 Brooks St #3, 80 Brooks St #3, 02135, Brighton, MA, 42.354916, -71.16252, 3300, FOR_RENT, APARTMENT, 2057621666, 9999, 3, 1, # 3, 6, 3, 15377869000, true, false, -1, false
156 Strathmore Rd #21, 156 Strathmore Rd #21, 02135, Brighton, MA, 42.33942, -71.15382, 3100, FOR_RENT, APARTMENT, 348029062, 9999, 2, 1, # 21, 7, 1, 15981806000, true, false, -1, false
41 Arlington St #3, 41 Arlington St #3, 02135, Brighton, MA, 42.352306, -71.15364, 3600, FOR_RENT, APARTMENT, 346926984, 9999, 3, 1, # 3, 10, 7, 17448220000, true, false, -1, false
21 Champney St #1, 21 Champney St #1, 02135, Brighton, MA, 42.351643, -71.1685, 5900, FOR_RENT, APARTMENT, 2106014221, 9999, 6, 3, # 1, 2, 2, 20914261000, true, false, -1, false
23 Colborne Rd #2, 23 Colborne Rd #2, 02135, Brighton, MA, 42.34276, -71.14626, 4500, FOR_RENT, APARTMENT, 351628560, 9999, 4, 2, # 2, 1, 9, 11840099000, true, false, -1, false
40 Glenley Ter #1, 40 Glenley Ter #1, 02135, Brighton, MA, 42.34843, -71.17147, 5700, FOR_RENT, APARTMENT, 350458317, 9999, 6, 3, # 1, 7, 4, 13130802000, true, false, -1, false
14 Bentley St #1, 14 Bentley St #1, 02135, Brighton, MA, 42.35071, -71.15105, 3200, FOR_RENT, APARTMENT, 2107502488, 9999, 3, 1, # 1, 4, 9, 20474427000, true, false, -1, false
224 Faneuil St #2, 224 Faneuil St #2, 02135, Brighton, MA, 42.353123, -71.15909, 3750, FOR_RENT, APARTMENT, 2058195354, 9999, 4, 1, # 2, 1, 1, 15304911000, true, false, -1, false
12 Melvin Ave #2, 12 Melvin Ave #2, 02135, Brighton, MA, 42.344788, -71.14166, 4700, FOR_RENT, APARTMENT, 2098272250, 9999, 4, 2, # 2, 5, 2, 17373963000, true, false, -1, false
4 Wadsworth St #2, 4 Wadsworth St #2, 02134, Allston, MA, 42.35531, -71.12696, 5150, FOR_RENT, APARTMENT, 347177692, 9999, 5, 3, # 2, 6, 8, 17193896000, true, false, -1, false
62 N Beacon St #4, 62 N Beacon St #4, 02134, Allston, MA, 42.354046, -71.140854, 5200, FOR_RENT, APARTMENT, 343718833, 9999, 4, 2, # 4, 6, 4, 19782010000, true, false, -1, false
3 Delaware Pl #2, 3 Delaware Pl #2, 02135, Brighton, MA, 42.3518, -71.152954, 3550, FOR_RENT, APARTMENT, 2080784328, 9999, 3, 2, # 2, 10, 9, 20137633000, true, false, -1, false
4 Adella Pl #G, 4 Adella Pl #G, 02134, Allston, MA, 42.352646, -71.136406, 3500, FOR_RENT, APARTMENT, 2054483698, undefined, 3, 1, # G, 9, 10, 30071857000, true, false, -1, false
65 Surrey St #1, 65 Surrey St #1, 02135, Brighton, MA, 42.350895, -71.155975, 3150, FOR_RENT, APARTMENT, 2090425522, 9999, 3, 1, # 1, 9, 10, 11154943000, true, false, -1, false
9 Bennett St #2, 9 Bennett St #2, 02135, Boston, MA, 42.35126, -71.1529, 3150, FOR_RENT, APARTMENT, 2086233575, 9999, 3, 1, # 2, 3, 5, 14697994000, true, false, -1, false
16 Sutherland Rd APT 2, 16 Sutherland Rd APT 2, 02135, Brighton, MA, 42.337044, -71.15049, 4200, FOR_RENT, APARTMENT, 2121143722, 9999, 4, 2, Apt 2, 9, 9, 20916124000, true, false, -1, false
11 Lothrop St FLOOR 2, 11 Lothrop St FLOOR 2, 02135, Brighton, MA, 42.360203, -71.145454, 3300, FOR_RENT, APARTMENT, 374852641, 9999, 3, 1, Floor 2, 6, 6, 8908311000, true, false, -1, false
72 Strathmore Rd APT 12B, 72 Strathmore Rd APT 12B, 02135, Brighton, MA, 42.33832, -71.149124, 3250, FOR_RENT, APARTMENT, 59094375, 9999, 3, 1, Apt 12B, 2, 4, 13736494000, true, false, -1, false
33 Bigelow St #2, 33 Bigelow St #2, 02135, Brighton, MA, 42.353085, -71.1675, 3400, FOR_RENT, APARTMENT, 2106113872, 9999, 3, 1, # 2, 2, 10, 14344580000, true, false, -1, false
8 Donnybrook Rd #2, 8 Donnybrook Rd #2, 02135, Brighton, MA, 42.35405, -71.15886, 4400, FOR_RENT, APARTMENT, 2058927214, 9999, 4, 2, # 2, 2, 6, 15905419000, true, false, -1, false
35 Bentley St #2, 35 Bentley St #2, 02135, Boston, MA, 42.350857, -71.15144, 9999, FOR_RENT, APARTMENT, 2095081294, 9999, 5, 2, # 2, 3, 2, 20474261000, true, false, -1, false
49 Orkney Rd #3, 49 Orkney Rd #3, 02135, Brighton, MA, 42.337017, -71.149345, 4400, FOR_RENT, APARTMENT, 2083055250, 9999, 4, 2, # 3, 10, 1, 20915858000, true, false, -1, false
66 Perthshire Rd #2, 66 Perthshire Rd #2, 02135, Brighton, MA, 42.353596, -71.16843, 4500, FOR_RENT, APARTMENT, 2106225106, 2200, 4, 2, # 2, 7, 3, 187536000, true, false, -1, false
21 Morrow Rd FLOOR 2, 21 Morrow Rd FLOOR 2, 02135, Brighton, MA, 42.35349, -71.1495, 3200, FOR_RENT, APARTMENT, 2057772589, 9999, 3, 1, Floor 2, 6, 4, 13743197000, true, false, -1, false
19 Litchfield St APT 3, 19 Litchfield St APT 3, 02135, Brighton, MA, 42.35865, -71.14125, 3400, FOR_RENT, APARTMENT, 2058884681, 9999, 3, 1, Apt 3, 7, 10, 15637079000, true, false, -1, false
16 Leicester St FLOOR 2, 16 Leicester St FLOOR 2, 02135, Brighton, MA, 42.349823, -71.15481, 3300, FOR_RENT, APARTMENT, 2058090708, 9999, 3, 1, Floor 2, 10, 4, 15644205000, true, false, -1, false
72 Brooks St #2, 72 Brooks St #2, 02135, Brighton, MA, 42.35512, -71.16243, 3200, FOR_RENT, APARTMENT, 2101963134, 9999, 3, 1, # 2, 9, 8, 17450413000, true, false, -1, false
39 Snow St #1, 39 Snow St #1, 02135, Brighton, MA, 42.345837, -71.14939, 6000, FOR_RENT, APARTMENT, 2060190298, undefined, 4, 3, # 1, 3, 3, 19080444000, true, false, -1, false
17 Hemenway St #14, 17 Hemenway St #14, 02115, Boston, MA, 42.34628, -71.089516, 3200, FOR_RENT, APARTMENT, 343715243, undefined, 0, 1, # 14, 5, 10, 19785442000, true, false, -1, false
20 Chiswick Rd #8, 20 Chiswick Rd #8, 02135, Brighton, MA, 42.3383, -71.15067, 3400, FOR_RENT, APARTMENT, 2064201682, 9999, 3, 1, # 8, 9, 7, 19780958000, true, false, -1, false
65 Gardena St #1, 65 Gardena St #1, 02135, Brighton, MA, 42.353424, -71.14736, 4950, FOR_RENT, APARTMENT, 343738132, 9999, 4, 3, # 1, 4, 3, 19777134000, true, false, -1, false
7 Willoughby St, 7 Willoughby St, 02135, Brighton, MA, 42.347126, -71.16071, 4200, FOR_RENT, APARTMENT, 2121490953, 2000, 4, 2, , 4, 10, 397586000, true, false, -1, false
30 Faneuil St #2, 30 Faneuil St #2, 02135, Brighton, MA, 42.355087, -71.15117, 4800, FOR_RENT, APARTMENT, 2057430764, 9999, 4, 3, # 2, 6, 1, 15636211000, true, false, -1, false
4 Donnybrook Rd #2, 4 Donnybrook Rd #2, 02135, Brighton, MA, 42.35388, -71.1586, 4000, FOR_RENT, APARTMENT, 341044273, 9999, 4, 2, # 2, 2, 2, 20829202000, true, false, -1, false
490 Washington St #2, 490 Washington St #2, 02135, Boston, MA, 42.348698, -71.16119, 4950, FOR_RENT, APARTMENT, 2088622349, 9999, 5, 3, # 2, 3, 6, 10549365000, true, false, -1, false
17 Kinross Rd FLOOR 3, 17 Kinross Rd FLOOR 3, 02135, Brighton, MA, 42.340214, -71.14968, 3600, FOR_RENT, APARTMENT, 2059303310, 9999, 3, 2, Floor 3, 8, 4, 15643465000, true, false, -1, false
31 Mansfield St #2, 31 Mansfield St #2, 02134, Allston, MA, 42.358196, -71.13093, 5200, FOR_RENT, APARTMENT, 346925411, 9999, 4, 3, # 2, 4, 1, 17449275000, true, false, -1, false
36 Orkney Rd APT 3, 36 Orkney Rd APT 3, 02135, Brighton, MA, 42.33672, -71.149765, 4400, FOR_RENT, APARTMENT, 59095047, 9999, 4, 2, Apt 3, 10, 3, 19101784000, true, false, -1, false
70 Langley Rd #1, 70 Langley Rd #1, 02135, Brighton, MA, 42.349422, -71.165085, 5700, FOR_RENT, APARTMENT, 340656348, 9999, 4, 3, # 1, 7, 2, 20916299000, true, false, -1, false
12 Cummings Rd #2, 12 Cummings Rd #2, 02135, Brighton, MA, 42.34019, -71.14347, 5000, FOR_RENT, APARTMENT, 2107935091, 9999, 5, 2, # 2, 6, 3, 10553734000, true, false, -1, false
1561 Commonwealth Ave #3, 1561 Commonwealth Ave #3, 02135, Brighton, MA, 42.344433, -71.14213, 2900, FOR_RENT, APARTMENT, 350457580, 9999, 2, 1, # 3, 1, 4, 13131802000, true, false, -1, false
14-18 Westford St #7R, 14-18 Westford St #7R, 02134, Allston, MA, 42.362244, -71.1348, 3100, FOR_RENT, APARTMENT, 348817241, 750, 2, 1, # 7R, 8, 5, 14951260000, true, false, -1, false
128 Parsons St #2, 128 Parsons St #2, 02135, Brighton, MA, 42.354424, -71.15557, 5500, FOR_RENT, APARTMENT, 2057621662, 9999, 5, 3, # 2, 5, 1, 15377162000, true, false, -1, false
108 Kenrick St #4, 108 Kenrick St #4, 02135, Brighton, MA, 42.346447, -71.16721, 5400, FOR_RENT, APARTMENT, 347887478, 9999, 4, 2, # 4, 5, 4, 16164698000, true, false, -1, false
57 Hobart St #1, 57 Hobart St #1, 02135, Brighton, MA, 42.35524, -71.15999, 3300, FOR_RENT, APARTMENT, 2098348131, 9999, 3, 1, # 1, 10, 4, 15917445000, true, false, -1, false
72 Hobart St #2, 72 Hobart St #2, 02135, Brighton, MA, 42.355057, -71.16087, 5300, FOR_RENT, APARTMENT, 2105711367, 9999, 5, 2, # 2, 7, 8, 13132955000, true, false, -1, false
122 Bennett St #1, 122 Bennett St #1, 02135, Brighton, MA, 42.351704, -71.159515, 3150, FOR_RENT, APARTMENT, 2105123403, 9999, 3, 1, # 1, 5, 3, 15377284000, true, false, -1, false
319 Summit Ave #1, 319 Summit Ave #1, 02135, Brighton, MA, 42.345306, -71.139854, 5500, FOR_RENT, APARTMENT, 2098442172, 9999, 5, 2, # 1, 4, 8, 11931669000, true, false, -1, false
33 Harriet St FLOOR 2, 33 Harriet St FLOOR 2, 02135, Brighton, MA, 42.353443, -71.15596, 4000, FOR_RENT, APARTMENT, 2062621319, 9999, 4, 1, Floor 2, 10, 4, 14344015000, true, false, -1, false
68 Glencoe St #3, 68 Glencoe St #3, 02135, Brighton, MA, 42.353233, -71.148865, 3500, FOR_RENT, APARTMENT, 348170425, 9999, 3, 1, # 3, 10, 4, 15916397000, true, false, -1, false
8 Sparhawk St #1, 8 Sparhawk St #1, 02135, Boston, MA, 42.350338, -71.14871, 4800, FOR_RENT, APARTMENT, 2105352832, 9999, 4, 2, # 1, 8, 6, 16680438000, true, false, -1, false
74 Leicester St SUITE 1, 74 Leicester St SUITE 1, 02135, Brighton, MA, 42.351887, -71.153984, 4700, FOR_RENT, APARTMENT, 346927181, 9999, 5, 4, Suite 1, 7, 4, 17448070000, true, false, -1, false
15 Sparhawk St #1, 15 Sparhawk St #1, 02135, Brighton, MA, 42.351124, -71.14939, 3600, FOR_RENT, APARTMENT, 247150366, 9999, 3, 2, # 1, 8, 2, 19004575000, true, false, -1, false
49 Allston St #1, 49 Allston St #1, 02134, Allston, MA, 42.351543, -71.13593, 4800, FOR_RENT, APARTMENT, 2094679435, 9999, 4, 2, # 1, 3, 6, 19276332000, true, false, -1, false
6 Athol St APT 1, 6 Athol St APT 1, 02134, Allston, MA, 42.361324, -71.13401, 5000, FOR_RENT, APARTMENT, 418273966, 9999, 5, 3, Apt 1, 2, 10, 6403354000, true, false, -1, false
64 Etna St #1, 64 Etna St #1, 02135, Brighton, MA, 42.353313, -71.14739, 3800, FOR_RENT, APARTMENT, 2105870568, 9999, 4, 2, # 1, 9, 4, 20473871000, true, false, -1, false
50 Atkins St #1, 50 Atkins St #1, 02135, Boston, MA, 42.35332, -71.16978, 3300, FOR_RENT, APARTMENT, 2118926323, 9999, 3, 1, # 1, 7, 10, 14425598000, true, false, -1, false
53 Shannon St #1, 53 Shannon St #1, 02135, Brighton, MA, 42.34601, -71.15017, 3200, FOR_RENT, APARTMENT, 2079208959, 9999, 3, 1, # 1, 9, 5, 15975647000, true, false, -1, false
30 Arlington St #3, 30 Arlington St #3, 02135, Brighton, MA, 42.35193, -71.15334, 3600, FOR_RENT, APARTMENT, 344606475, 9999, 3, 2, # 3, 7, 6, 19103447000, true, false, -1, false
138 Newton St #2, 138 Newton St #2, 02135, Brighton, MA, 42.3559, -71.16876, 3400, FOR_RENT, APARTMENT, 2107274481, 9999, 3, 2, # 2, 5, 10, 20913829000, true, false, -1, false
70 Antwerp St #1, 70 Antwerp St #1, 02135, Brighton, MA, 42.3605, -71.13962, 3200, FOR_RENT, APARTMENT, 348170843, 9999, 3, 1, # 1, 8, 4, 15916149000, true, false, -1, false
68 Tremont St #2, 68 Tremont St #2, 02135, Brighton, MA, 42.350418, -71.17139, 3500, FOR_RENT, APARTMENT, 347887831, 9999, 3, 1, # 2, 7, 7, 16164273000, true, false, -1, false
65 Lewis St APT 402, 65 Lewis St APT 402, 02128, Boston, MA, 42.36786, -71.04197, 2850, FOR_RENT, APARTMENT, 333605453, 600, 1, 1, Apt 402, 10, 1, 356738000, true, false, -1, false
2 Glenley Ter #3, 2 Glenley Ter #3, 02135, Brighton, MA, 42.348225, -71.16994, 5500, FOR_RENT, APARTMENT, 350458512, 9999, 5, 3, # 3, 10, 8, 13130529000, true, false, -1, false
77 Bigelow St #1, 77 Bigelow St #1, 02135, Brighton, MA, 42.354603, -71.166885, 4600, FOR_RENT, APARTMENT, 2119540765, 9999, 4, 2, # 1, 8, 4, 13733122000, true, false, -1, false
26 Brackett St #1, 26 Brackett St #1, 02135, Brighton, MA, 42.351162, -71.16549, 3300, FOR_RENT, APARTMENT, 2099250024, 9999, 3, 2, # 1, 4, 2, 13741954000, true, false, -1, false
28 Leicester St #2, 28 Leicester St #2, 02135, Brighton, MA, 42.35015, -71.15466, 3400, FOR_RENT, APARTMENT, 2110747457, 9999, 3, 2, # 2, 1, 7, 15636418000, true, false, -1, false
43 Winship St #3, 43 Winship St #3, 02135, Brighton, MA, 42.34713, -71.15206, 4200, FOR_RENT, APARTMENT, 2058196145, 9999, 4, 2, # 3, 6, 10, 15978519000, true, false, -1, false
37 Ransom Rd #2, 37 Ransom Rd #2, 02135, Brighton, MA, 42.34275, -71.145744, 3200, FOR_RENT, APARTMENT, 2106254685, 9999, 3, 1, # 2, 3, 10, 17449892000, true, false, -1, false
21 Claymoss Rd #1, 21 Claymoss Rd #1, 02135, Boston, MA, 42.34402, -71.1446, 3200, FOR_RENT, APARTMENT, 2118637003, 9999, 3, 1, # 1, 2, 7, 19263271000, true, false, -1, false
650 Columbus Ave #434, 650 Columbus Ave #434, 02118, Boston, MA, 42.33859, -71.08312, 3300, FOR_RENT, APARTMENT, 440330719, 720, 1, 1, # 434, 5, 9, 3200409000, true, false, -1, false
8 Winter St #1103, 8 Winter St #1103, 02108, Boston, MA, 42.35552, -71.06166, 3200, FOR_RENT, APARTMENT, 2058145112, 608, 1, 1, # 1103, 6, 9, 4057882000, true, false, -1, false
475 Shawmut Ave APT 2, 475 Shawmut Ave APT 2, 02118, Boston, MA, 42.338947, -71.07589, 3500, FOR_RENT, APARTMENT, 2079157994, 950, 2, 1, Apt 2, 5, 6, 351695000, true, false, -1, false
780 William T Morrissey Blvd #1B-1BA-644SQFT, 780 William T Morrissey Blvd #1B-1BA-644SQFT, 02122, Dorchester, MA, 42.295498, -71.046715, 3158, FOR_RENT, APARTMENT, 439777838, 644, 1, 1, # 1B-1Ba-644Sqft, 2, 1, 4477663000, true, false, -1, false
1079 Commonwealth Ave APT 532, 1079 Commonwealth Ave APT 532, 02215, Boston, MA, 42.352787, -71.12451, 4700, FOR_RENT, APARTMENT, 440956161, 1660, 3, 2, Apt 532, 8, 5, 1646314000, true, false, -1, false
130-140 Bowdoin St #1106, 130-140 Bowdoin St #1106, 02108, Boston, MA, 42.35862, -71.06247, 3000, FOR_RENT, APARTMENT, 2054752511, 570, 1, 1, # 1106, 7, 9, 11952204000, true, false, -1, false
1482 Tremont St #305, 1482 Tremont St #305, 02120, Roxbury Crossing, MA, 42.33176, -71.09868, 4566, FOR_RENT, APARTMENT, 2053079409, 948, 2, 1, # 305, 1, 5, 8874716000, true, false, -1, false
43 Smith St #S024C, 43 Smith St #S024C, 02120, Roxbury Crossing, MA, 42.333973, -71.09865, 5400, FOR_RENT, APARTMENT, 439928634, 1444, 3, 2, # S024C, 1, 7, 4057841000, true, false, -1, false
106 Tremont St #116001, 106 Tremont St #116001, 02135, Brighton, MA, 42.350887, -71.1733, 2895, FOR_RENT, APARTMENT, 402689450, 1000, 2, 1, # 116001, 10, 7, 7079129000, true, false, -1, false
160 E Berkeley St APT 515, 160 E Berkeley St APT 515, 02118, Boston, MA, 42.34383, -71.06467, 5400, FOR_RENT, APARTMENT, 2126266428, 1200, 3, 1, Apt 515, 9, 9, 4936586000, true, false, -1, false
40 Malvern St #502, 40 Malvern St #502, 02134, Allston, MA, 42.354015, -71.12504, 4150, FOR_RENT, APARTMENT, 2072797408, 840, 2, 2, # 502, 6, 8, 4238083000, true, false, -1, false
56-58 Selkirk Rd #56-2, 56-58 Selkirk Rd #56-2, 02135, Brighton, MA, 42.33929, -71.149704, 2700, FOR_RENT, APARTMENT, 441843002, 860, 2, 1, # 56-2, 8, 8, 276960000, true, false, -1, false
36 Quint Ave APT 3, 36 Quint Ave APT 3, 02134, Allston, MA, 42.352024, -71.13385, 2495, FOR_RENT, APARTMENT, 2106495376, undefined, 1, 1, Apt 3, 6, 4, 9923059000, true, false, -1, false
99 Border St #310, 99 Border St #310, 02128, Boston, MA, 42.372364, -71.041245, 3150, FOR_RENT, APARTMENT, 439487695, 835, 2, 1, # 310, 10, 7, 5005729000, true, false, -1, false
223 Harvard Ave APT 8, 223 Harvard Ave APT 8, 02134, Allston, MA, 42.349262, -71.13053, 3400, FOR_RENT, APARTMENT, 59086562, 1000, 2, 1, Apt 8, 6, 4, 12945796000, true, false, -1, false
80 Fuller St #FDAF547CA, 80 Fuller St #FDAF547CA, 02124, Dorchester Center, MA, 42.28238, -71.06918, 4500, FOR_RENT, APARTMENT, 350771339, 1300, 3, 2, # fdaf547ca, 8, 6, 12956536000, true, false, -1, false
9 Gardner Ter #150454, 9 Gardner Ter #150454, 02134, Allston, MA, 42.35294, -71.1261, 4200, FOR_RENT, APARTMENT, 2076974112, 2000, 3, 2, # 150454, 3, 7, 10458751000, true, false, -1, false
16 Highgate St #303, 16 Highgate St #303, 02134, Allston, MA, 42.35538, -71.131615, 3895, FOR_RENT, APARTMENT, 2059263526, 845, 2, 2, # 303, 4, 9, 2928786000, true, false, -1, false
917 Bennington St #206, 917 Bennington St #206, 02128, Boston, MA, 42.385426, -71.00984, 3200, FOR_RENT, APARTMENT, 2071232908, 1196, 2, 2, # 206, 10, 6, 6537654000, true, false, -1, false
1 Ashford Ct #505, 1 Ashford Ct #505, 02134, Allston, MA, 42.354168, -71.12616, 3500, FOR_RENT, APARTMENT, 2053087523, undefined, 1, 1, # 505, 4, 4, 23311061000, true, false, -1, false
775 Morton St #C722AE6CF, 775 Morton St #C722AE6CF, 02126, Mattapan, MA, 42.284348, -71.0922, 2950, FOR_RENT, APARTMENT, 2052856157, 950, 2, 1, # c722ae6cf, 3, 4, 21926469000, true, false, -1, false
3 Carol Ave #15-10, 3 Carol Ave #15-10, 02135, Brighton, MA, 42.345207, -71.14093, 3095, FOR_RENT, APARTMENT, 440948116, undefined, 2, 1, # 15-10, 8, 4, 1729061000, true, false, -1, false
484 Tremont St #72, 484 Tremont St #72, 02116, Boston, MA, 42.34593, -71.06907, 2805, FOR_RENT, APARTMENT, 440264636, 660, 1, 1, # 72, 9, 3, 3284075000, true, false, -1, false
72 Gardner St #F1, 72 Gardner St #F1, 02134, Allston, MA, 42.353912, -71.12727, 4395, FOR_RENT, APARTMENT, 2103242614, 1000, 4, 2, # F1, 9, 4, 23497241000, true, false, -1, false
735 Truman Pkwy #2675068, 735 Truman Pkwy #2675068, 02136, Hyde Park, MA, 42.251705, -71.12055, 2510, FOR_RENT, APARTMENT, 2063194826, 715, 1, 1, # 2675068, 9, 9, 266311000, true, false, -1, false
11 Royce Rd APT 4, 11 Royce Rd APT 4, 02134, Boston, MA, 42.34899, -71.13182, 1950, FOR_RENT, APARTMENT, 2126747455, undefined, 0, 1, Apt 4, 1, 8, 804969000, true, false, -1, false
740 E 7th St APT 18, 740 E 7th St APT 18, 02127, Boston, MA, 42.3326, -71.03075, 2450, FOR_RENT, APARTMENT, 2060111632, undefined, 1, 1, Apt 18, 2, 6, 4428060000, true, false, -1, false
245 Sumner St #104, 245 Sumner St #104, 02128, Boston, MA, 42.36793, -71.03844, 3475, FOR_RENT, APARTMENT, 2078574857, 975, 2, 2, # 104, 7, 6, 4946987000, true, false, -1, false
455 E 1st St #402, 455 E 1st St #402, 02127, Boston, MA, 42.337894, -71.04202, 4000, FOR_RENT, APARTMENT, 2095373617, 1000, 1, 1, # 402, 5, 1, 10634368000, true, false, -1, false
4 Elko St #810, 4 Elko St #810, 02135, Brighton, MA, 42.349636, -71.149414, 3200, FOR_RENT, APARTMENT, 2078832491, 795, 3, 1, # 810, 1, 7, 1368977000, true, false, -1, false
33 Maverick Sq #301, 33 Maverick Sq #301, 02128, Boston, MA, 42.36934, -71.039024, 2800, FOR_RENT, APARTMENT, 401813418, 724, 2, 1, # 301, 4, 3, 7998975000, true, false, -1, false
111 Atlantic Ave APT 220, 111 Atlantic Ave APT 220, 02109, Boston, MA, 42.361366, -71.052635, 3425, FOR_RENT, APARTMENT, 402099861, 720, 1, 1, Apt 220, 6, 7, 421931000, true, false, -1, false
1970 Commonwealth Ave #1980-32, 1970 Commonwealth Ave #1980-32, 02135, Brighton, MA, 42.338963, -71.15689, 2100, FOR_RENT, APARTMENT, 441821538, 900, 1, 1, # 1980-32, 1, 4, 1373948000, true, false, -1, false
95 Endicott St #4A97F72DB, 95 Endicott St #4A97F72DB, 02113, Boston, MA, 42.364254, -71.05713, 3600, FOR_RENT, APARTMENT, 350201343, 1400, 3, 2, # 4a97f72db, 7, 10, 13548618000, true, false, -1, false
11 Woodside Ave #3A, 11 Woodside Ave #3A, 02130, Jamaica Plain, MA, 42.309742, -71.10351, 3100, FOR_RENT, APARTMENT, 441897289, 1069, 3, 1, # 3A, 8, 10, 62036000, true, false, -1, false
9-11 Moraine St #2, 9-11 Moraine St #2, 02130, Boston, MA, 42.319946, -71.112434, 4300, FOR_RENT, APARTMENT, 339517786, 1395, 3, 1, # 2, 10, 2, 73878000, true, false, -1, false
124 Marine Rd APT 1, 124 Marine Rd APT 1, 02127, South Boston, MA, 42.330833, -71.034134, 3400, FOR_RENT, APARTMENT, 2083409717, 1200, 2, 1, Apt 1, 6, 9, 92852000, true, false, -1, false
49 Leyden St #1, 49 Leyden St #1, 02128, East Boston, MA, 42.389904, -71.01055, 3300, FOR_RENT, APARTMENT, 318226986, 1085, 2, 2, # 1, 7, 9, 102918000, true, false, -1, false
78 Hillside St APT 3, 78 Hillside St APT 3, 02120, Boston, MA, 42.3303, -71.10269, 6200, FOR_RENT, TOWNHOUSE, 2108994418, 1200, 4, 1, Apt 3, 6, 2, 183355000, true, false, -1, false
39 Hemenway St APT 1, 39 Hemenway St APT 1, 02115, Boston, MA, 42.34553, -71.089714, 8000, FOR_RENT, APARTMENT, 59176969, 9999, 4, 2, Apt 1, 6, 1, 161978000, true, false, -1, false
99 Salem St #2, 99 Salem St #2, 02113, Boston, MA, 42.363914, -71.05554, 3200, FOR_RENT, APARTMENT, 2077460838, 575, 2, 1, # 2, 5, 6, 154513000, true, false, -1, false
298 Commonwealth Ave APT 202, 298 Commonwealth Ave APT 202, 02115, Boston, MA, 42.350437, -71.084885, 3300, FOR_RENT, APARTMENT, 59177075, 512, 1, 1, Apt 202, 2, 5, 178174000, true, false, -1, false
185 Hillside St, 185 Hillside St, 02120, Mission Hill, MA, 42.33197, -71.10816, 8000, FOR_RENT, TOWNHOUSE, 2100555662, 9999, 5, 3, , 8, 8, 340607000, true, false, -1, false
128 Roxbury St, 128 Roxbury St, 02119, Boston, MA, 42.33026, -71.08848, 8000, FOR_RENT, TOWNHOUSE, 2085952751, 9999, 5, 3, , 4, 9, 247680000, true, false, -1, false
18 Gerald Rd #1, 18 Gerald Rd #1, 02135, Brighton, MA, 42.340767, -71.160255, 11200, FOR_RENT, APARTMENT, 441700635, 2200, 6, 3, # 1, 10, 1, 942770000, true, false, -1, false
2 Lamson Ct #1B, 2 Lamson Ct #1B, 02128, Boston, MA, 42.36624, -71.0329, 5500, FOR_RENT, APARTMENT, 441824105, 1700, 4, 3, # 1B, 8, 1, 348175000, true, false, -1, false
190 Green St, 190 Green St, 02130, Boston, MA, 42.309963, -71.10543, 2695, FOR_RENT, APARTMENT, 59133747, 625, 1, 1, , 10, 2, 250514000, true, false, -1, false
41 Hobson St #2, 41 Hobson St #2, 02135, Brighton, MA, 42.354237, -71.16179, 4800, FOR_RENT, APARTMENT, 2119159270, 9999, 5, 2, # 2, 8, 3, 20473278000, true, false, -1, false
41 Grove St #3A, 41 Grove St #3A, 02114, Boston, MA, 42.359768, -71.06882, 3800, FOR_RENT, APARTMENT, 2080623051, 725, 2, 1, # 3A, 9, 6, 258780000, true, false, -1, false
43 Bennett St #2, 43 Bennett St #2, 02135, Brighton, MA, 42.351658, -71.15521, 5000, FOR_RENT, APARTMENT, 342130488, 9999, 5, 3, # 2, 8, 4, 20391631000, true, false, -1, false
130 Glenville Ave #1A, 130 Glenville Ave #1A, 02134, Allston, MA, 42.34905, -71.137085, 3300, FOR_RENT, APARTMENT, 441774355, 1200, 3, 1, # 1A, 2, 6, 599846000, true, false, -1, false
35 Falkland St #1, 35 Falkland St #1, 02135, Brighton, MA, 42.35537, -71.15844, 3300, FOR_RENT, APARTMENT, 2079151025, 9999, 3, 1, # 1, 6, 3, 15980814000, true, false, -1, false
6 Harvard Ter #1, 6 Harvard Ter #1, 02134, Allston, MA, 42.353886, -71.13256, 4200, FOR_RENT, APARTMENT, 2095067346, 9999, 3, 2, # 1, 6, 2, 11311801000, true, false, -1, false
155 Euston Rd #14, 155 Euston Rd #14, 02135, Brighton, MA, 42.3441, -71.14518, 2575, FOR_RENT, APARTMENT, 344410835, 850, 0, 1, # 14, 2, 8, 19230173000, true, false, -1, false
20 Murdock St #2, 20 Murdock St #2, 02135, Brighton, MA, 42.350796, -71.1478, 5200, FOR_RENT, APARTMENT, 2085763960, 9999, 5, 3, # 2, 4, 8, 11154695000, true, false, -1, false
26 Pratt St #1, 26 Pratt St #1, 02134, Allston, MA, 42.355225, -71.128784, 5000, FOR_RENT, APARTMENT, 2078123540, 9999, 4, 2, # 1, 1, 2, 19274069000, true, false, -1, false
10 Arlington St #1, 10 Arlington St #1, 02135, Brighton, MA, 42.351784, -71.152405, 4700, FOR_RENT, APARTMENT, 343870220, 9999, 5, 4, # 1, 6, 10, 19695531000, true, false, -1, false
22 Sparhawk St #2, 22 Sparhawk St #2, 02135, Brighton, MA, 42.351074, -71.15083, 5250, FOR_RENT, APARTMENT, 2080334566, 9999, 5, 3, # 2, 3, 10, 11414874000, true, false, -1, false
1522 Commonwealth Ave #2, 1522 Commonwealth Ave #2, 02135, Brighton, MA, 42.345413, -71.14116, 4700, FOR_RENT, APARTMENT, 344606126, 9999, 4, 2, # 2, 5, 10, 19103916000, true, false, -1, false
50 Brooks St #2, 50 Brooks St #2, 02135, Brighton, MA, 42.355804, -71.16229, 3200, FOR_RENT, APARTMENT, 2105900077, 9999, 3, 1, # 2, 7, 3, 19261242000, true, false, -1, false
91 Parsons St #1, 91 Parsons St #1, 02135, Brighton, MA, 42.35353, -71.15388, 5000, FOR_RENT, APARTMENT, 2103441765, 9999, 5, 2, # 1, 8, 9, 13132530000, true, false, -1, false
26 Easton St #3, 26 Easton St #3, 02134, Allston, MA, 42.36021, -71.13014, 3100, FOR_RENT, APARTMENT, 343720104, 9999, 0, 1, # 3, 1, 7, 19781404000, true, false, -1, false
229 Chestnut Hill Ave #1, 229 Chestnut Hill Ave #1, 02135, Brighton, MA, 42.33992, -71.1557, 5800, FOR_RENT, APARTMENT, 2105631522, 1400, 4, 2, # 1, 2, 6, 3381763000, true, false, -1, false
21 Ransom Rd #2, 21 Ransom Rd #2, 02135, Brighton, MA, 42.343445, -71.144936, 4500, FOR_RENT, APARTMENT, 2106015417, 9999, 4, 2, # 2, 5, 5, 11145561000, true, false, -1, false
25 Murdock St FLOOR 1, 25 Murdock St FLOOR 1, 02135, Brighton, MA, 42.350636, -71.14732, 4850, FOR_RENT, APARTMENT, 344711148, 9999, 4, 2, Floor 1, 9, 1, 19004251000, true, false, -1, false
1100 Vfw Pkwy #3306, 1100 Vfw Pkwy #3306, 02132, West Roxbury, MA, 42.284, -71.17139, 2400, FOR_RENT, APARTMENT, 441822795, 738, 1, 1, # 3306, 9, 4, 352844000, true, false, -1, false
46 Donnybrook Rd #2, 46 Donnybrook Rd #2, 02135, Brighton, MA, 42.354378, -71.16065, 4400, FOR_RENT, APARTMENT, 350741243, 9999, 4, 2, # 2, 8, 6, 12969460000, true, false, -1, false
11 Oakland St #1, 11 Oakland St #1, 02135, Brighton, MA, 42.349712, -71.15762, 3600, FOR_RENT, APARTMENT, 2078285887, 9999, 3, 1, # 1, 7, 5, 15903523000, true, false, -1, false
64 Wallingford Rd #2, 64 Wallingford Rd #2, 02135, Brighton, MA, 42.34363, -71.15155, 4400, FOR_RENT, APARTMENT, 2057850820, 9999, 4, 2, # 2, 3, 8, 15916744000, true, false, -1, false
35 Orkney Rd APT 3, 35 Orkney Rd APT 3, 02135, Brighton, MA, 42.33716, -71.149475, 4400, FOR_RENT, APARTMENT, 2108826138, 9999, 4, 2, Apt 3, 3, 1, 15980652000, true, false, -1, false
44 Gardena St #3, 44 Gardena St #3, 02135, Brighton, MA, 42.35381, -71.14823, 4000, FOR_RENT, APARTMENT, 347121962, 9999, 3, 2, # 3, 2, 4, 17276644000, true, false, -1, false
9-11 Burney St #407, 9-11 Burney St #407, 02120, Roxbury Crossing, MA, 42.33165, -71.09968, 3250, FOR_RENT, APARTMENT, 2054773005, 577, 1, 1, # 407, 3, 7, 1125070000, true, false, -1, false
9 Lothrop St #1, 9 Lothrop St #1, 02135, Brighton, MA, 42.360226, -71.14549, 3400, FOR_RENT, APARTMENT, 2095302800, 9999, 3, 1, # 1, 4, 10, 11837576000, true, false, -1, false
109 Lanark Rd #1, 109 Lanark Rd #1, 02135, Brighton, MA, 42.340828, -71.148384, 4300, FOR_RENT, APARTMENT, 351631834, 9999, 4, 1, # 1, 2, 5, 11835617000, true, false, -1, false
36 Arlington St #1, 36 Arlington St #1, 02135, Brighton, MA, 42.351967, -71.15346, 4700, FOR_RENT, APARTMENT, 2096716859, 9999, 5, 4, # 1, 5, 10, 19103312000, true, false, -1, false
96 Linden St APT 3, 96 Linden St APT 3, 02134, Allston, MA, 42.351467, -71.12993, 2600, FOR_RENT, APARTMENT, 59087925, 613, 1, 1, Apt 3, 8, 9, 2601483000, true, false, -1, false
605 E 3rd St #1, 605 E 3rd St #1, 02127, Boston, MA, 42.336357, -71.03588, 4325, FOR_RENT, APARTMENT, 2080565628, 1000, 3, 1, # 1, 10, 7, 441059000, true, false, -1, false
18 Claymoss Rd #2, 18 Claymoss Rd #2, 02135, Brighton, MA, 42.34359, -71.144745, 4400, FOR_RENT, APARTMENT, 2101654932, 9999, 4, 2, # 2, 7, 2, 15643265000, true, false, -1, false
6 Sparhawk St #10, 6 Sparhawk St #10, 02135, Brighton, MA, 42.35029, -71.14842, 4800, FOR_RENT, APARTMENT, 344710204, 9999, 4, 2, # 10, 1, 8, 19004820000, true, false, -1, false
30 Raymond St #36, 30 Raymond St #36, 02134, Allston, MA, 42.361786, -71.13405, 5400, FOR_RENT, APARTMENT, 343719664, 9999, 5, 3, # 36, 3, 4, 19781714000, true, false, -1, false
25 Eulita Ter #2, 25 Eulita Ter #2, 02135, Brighton, MA, 42.34633, -71.15285, 4300, FOR_RENT, APARTMENT, 341917586, 9999, 4, 2, # 2, 2, 4, 20473589000, true, false, -1, false
24 Tremont St #1, 24 Tremont St #1, 02135, Brighton, MA, 42.349987, -71.16947, 3400, FOR_RENT, APARTMENT, 353473389, 9999, 3, 1, # 1, 5, 8, 10030769000, true, false, -1, false
34 Mapleton St #1, 34 Mapleton St #1, 02135, Brighton, MA, 42.35215, -71.14958, 4200, FOR_RENT, APARTMENT, 2058417970, 9999, 4, 2, # 1, 9, 7, 15980966000, true, false, -1, false
11 Bennett St #2, 11 Bennett St #2, 02135, Brighton, MA, 42.35133, -71.15304, 5400, FOR_RENT, APARTMENT, 342129322, 9999, 5, 4, # 2, 6, 7, 20391982000, true, false, -1, false
38 Murdock St #2, 38 Murdock St #2, 02135, Brighton, MA, 42.35112, -71.14741, 3450, FOR_RENT, APARTMENT, 341547208, 9999, 3, 1, # 2, 9, 5, 20739361000, true, false, -1, false
223 Harrison Ave #2, 223 Harrison Ave #2, 02111, Boston, MA, 42.34781, -71.06289, 2300, FOR_RENT, APARTMENT, 2070060479, 700, 1, 1, # 2, 10, 4, 506300000, true, false, -1, false
10 Mohawk St #A, 10 Mohawk St #A, 02127, Boston, MA, 42.328896, -71.05555, 3600, FOR_RENT, TOWNHOUSE, 441823826, 1542, 2, 2, # A, 10, 6, 349513000, true, false, -1, false
45 Falkland St #2, 45 Falkland St #2, 02135, Boston, MA, 42.35573, -71.15856, 4900, FOR_RENT, APARTMENT, 2126183750, 9999, 5, 2, # 2, 2, 8, 14425787000, true, false, -1, false
75 Alleghany St #1, 75 Alleghany St #1, 02120, Boston, MA, 42.331406, -71.10145, 15200, FOR_RENT, APARTMENT, 2091992781, 3500, 8, 3, # 1, 3, 7, 754438000, true, false, -1, false
10 Eulita Ter #1, 10 Eulita Ter #1, 02135, Boston, MA, 42.346626, -71.152794, 3600, FOR_RENT, APARTMENT, 2126183753, 9999, 3, 2, # 1, 10, 2, 15904014000, true, false, -1, false
40 Falkland St #1, 40 Falkland St #1, 02135, Brighton, MA, 42.355408, -71.158905, 5000, FOR_RENT, APARTMENT, 2080369785, 9999, 5, 2, # 1, 3, 5, 15979316000, true, false, -1, false
1536 Commonwealth Ave #2, 1536 Commonwealth Ave #2, 02135, Brighton, MA, 42.345043, -71.1414, 4700, FOR_RENT, APARTMENT, 2116940881, 9999, 4, 2, # 2, 5, 2, 19263465000, true, false, -1, false
8 Gordon St #6, 8 Gordon St #6, 02134, Allston, MA, 42.353497, -71.14076, 5200, FOR_RENT, APARTMENT, 343718969, 9999, 4, 2, # 6, 7, 4, 19781851000, true, false, -1, false
60 Wallingford Rd #2, 60 Wallingford Rd #2, 02135, Brighton, MA, 42.343483, -71.15138, 4300, FOR_RENT, APARTMENT, 2106156260, 9999, 4, 2, # 2, 6, 7, 20914120000, true, false, -1, false
4 Woodmont St #1, 4 Woodmont St #1, 02135, Brighton, MA, 42.356636, -71.162575, 4300, FOR_RENT, APARTMENT, 340652308, 9999, 4, 2, # 1, 6, 5, 20917167000, true, false, -1, false
39 Oakland St #2, 39 Oakland St #2, 02135, Brighton, MA, 42.350574, -71.15773, 5200, FOR_RENT, APARTMENT, 348041946, 9999, 4, 2, # 2, 1, 3, 15979871000, true, false, -1, false
61 Oak Square Ave #1, 61 Oak Square Ave #1, 02135, Brighton, MA, 42.35182, -71.16349, 3200, FOR_RENT, APARTMENT, 2058927175, 9999, 3, 1, # 1, 1, 5, 15917218000, true, false, -1, false
8 Corinne Rd #1, 8 Corinne Rd #1, 02135, Brighton, MA, 42.35551, -71.1594, 3200, FOR_RENT, APARTMENT, 2057146945, 9999, 3, 1, # 1, 8, 2, 15905552000, true, false, -1, false
2 Bennett St #1, 2 Bennett St #1, 02135, Brighton, MA, 42.350906, -71.15242, 3150, FOR_RENT, APARTMENT, 344237847, 9999, 3, 1, # 1, 8, 3, 19262820000, true, false, -1, false
21 Portsmouth St APT 1, 21 Portsmouth St APT 1, 02135, Brighton, MA, 42.36007, -71.14448, 5200, FOR_RENT, APARTMENT, 344136330, undefined, 4, 2, Apt 1, 9, 9, 19275318000, true, false, -1, false
42 Easton St #2, 42 Easton St #2, 02134, Allston, MA, 42.359776, -71.13061, 3400, FOR_RENT, APARTMENT, 374837055, 9999, 3, 1, # 2, 4, 1, 8908757000, true, false, -1, false
55 Easton St #1, 55 Easton St #1, 02134, Allston, MA, 42.359806, -71.13131, 3400, FOR_RENT, APARTMENT, 2095336816, 99999, 3, 1, # 1, 10, 5, 10203916000, true, false, -1, false
37 Blenford Rd #2, 37 Blenford Rd #2, 02135, Brighton, MA, 42.344913, -71.15072, 4500, FOR_RENT, APARTMENT, 351630838, 9999, 4, 2, # 2, 4, 2, 11837163000, true, false, -1, false
7 Dickinson Rd #1, 7 Dickinson Rd #1, 02135, Brighton, MA, 42.348495, -71.16147, 3200, FOR_RENT, APARTMENT, 2079921132, 9999, 3, 1, # 1, 1, 3, 15905840000, true, false, -1, false
29 Wilson Park #3, 29 Wilson Park #3, 02135, Brighton, MA, 42.340942, -71.145454, 4400, FOR_RENT, APARTMENT, 2098437876, 9999, 4, 2, # 3, 8, 2, 19104214000, true, false, -1, false
60 Hobart St #1, 60 Hobart St #1, 02135, Brighton, MA, 42.35492, -71.16011, 3300, FOR_RENT, APARTMENT, 2106063366, 9999, 3, 1, # 1, 4, 1, 20739559000, true, false, -1, false
48 Tremont St #1, 48 Tremont St #1, 02135, Brighton, MA, 42.35017, -71.170586, 3400, FOR_RENT, APARTMENT, 2065463388, 9999, 3, 1, # 1, 1, 2, 10458437000, true, false, -1, false
180 Faneuil St #3, 180 Faneuil St #3, 02135, Brighton, MA, 42.354122, -71.15743, 5500, FOR_RENT, APARTMENT, 2064325810, 9999, 5, 2, # 3, 2, 3, 13661411000, true, false, -1, false
64 Hobart St #1, 64 Hobart St #1, 02135, Brighton, MA, 42.355007, -71.16047, 3200, FOR_RENT, APARTMENT, 2098646402, 9999, 3, 1, # 1, 5, 10, 15916927000, true, false, -1, false
39 Blenford Rd #1, 39 Blenford Rd #1, 02135, Boston, MA, 42.34472, -71.15061, 3300, FOR_RENT, APARTMENT, 2091813620, 9999, 3, 1, # 1, 6, 3, 15980037000, true, false, -1, false
17 Sparhawk St #4, 17 Sparhawk St #4, 02135, Brighton, MA, 42.35121, -71.149925, 4800, FOR_RENT, APARTMENT, 344710760, 9999, 4, 2, # 4, 7, 6, 19004394000, true, false, -1, false
30 Glencoe St #1, 30 Glencoe St #1, 02135, Brighton, MA, 42.354485, -71.14807, 3800, FOR_RENT, APARTMENT, 2059287936, 9999, 3, 2, # 1, 4, 4, 15981561000, true, false, -1, false
3 Glenley Ter #1, 3 Glenley Ter #1, 02135, Brighton, MA, 42.34836, -71.17, 5900, FOR_RENT, APARTMENT, 2080549039, 9999, 6, 3, # 1, 5, 8, 17276880000, true, false, -1, false
12 Shannon St #1, 12 Shannon St #1, 02135, Brighton, MA, 42.346916, -71.14921, 3200, FOR_RENT, APARTMENT, 341152888, 9999, 3, 1, # 1, 3, 5, 20815053000, true, false, -1, false
9 Sparhawk St #2, 9 Sparhawk St #2, 02135, Brighton, MA, 42.350853, -71.148575, 5400, FOR_RENT, APARTMENT, 2112587867, 9999, 4, 3, # 2, 10, 9, 12885159000, true, false, -1, false
41 Gardena St #2, 41 Gardena St #2, 02135, Brighton, MA, 42.353584, -71.148705, 3600, FOR_RENT, APARTMENT, 2105709706, 9999, 3, 1, # 2, 4, 2, 14426054000, true, false, -1, false
11 Dunboy St #2, 11 Dunboy St #2, 02135, Brighton, MA, 42.3525, -71.16462, 3300, FOR_RENT, APARTMENT, 2099041036, 9999, 3, 1, # 2, 9, 5, 15903735000, true, false, -1, false
14 Sparhawk St #2, 14 Sparhawk St #2, 02135, Brighton, MA, 42.350616, -71.149666, 4800, FOR_RENT, APARTMENT, 2107197325, 9999, 4, 2, # 2, 9, 7, 18581423000, true, false, -1, false
77 Colborne Rd #2, 77 Colborne Rd #2, 02135, Brighton, MA, 42.34426, -71.14786, 3000, FOR_RENT, APARTMENT, 344191008, 9999, 2, 1, # 2, 2, 10, 19264910000, true, false, -1, false
48 Cummings Rd APT 1, 48 Cummings Rd APT 1, 02135, Brighton, MA, 42.34094, -71.14511, 5000, FOR_RENT, APARTMENT, 2121269463, 9999, 5, 2, Apt 1, 8, 5, 19262172000, true, false, -1, false
131 Brooks St #1, 131 Brooks St #1, 02135, Brighton, MA, 42.353096, -71.16336, 4800, FOR_RENT, APARTMENT, 350092021, 9999, 4, 2, # 1, 5, 3, 13660168000, true, false, -1, false
80 Brooks St #3, 80 Brooks St #3, 02135, Brighton, MA, 42.354916, -71.16252, 3300, FOR_RENT, APARTMENT, 2057621666, 9999, 3, 1, # 3, 9, 1, 15377869000, true, false, -1, false
156 Strathmore Rd #21, 156 Strathmore Rd #21, 02135, Brighton, MA, 42.33942, -71.15382, 3100, FOR_RENT, APARTMENT, 348029062, 9999, 2, 1, # 21, 6, 6, 15981806000, true, false, -1, false
41 Arlington St #3, 41 Arlington St #3, 02135, Brighton, MA, 42.352306, -71.15364, 3600, FOR_RENT, APARTMENT, 346926984, 9999, 3, 1, # 3, 7, 10, 17448220000, true, false, -1, false
21 Champney St #1, 21 Champney St #1, 02135, Brighton, MA, 42.351643, -71.1685, 5900, FOR_RENT, APARTMENT, 2106014221, 9999, 6, 3, # 1, 10, 9, 20914261000, true, false, -1, false
23 Colborne Rd #2, 23 Colborne Rd #2, 02135, Brighton, MA, 42.34276, -71.14626, 4500, FOR_RENT, APARTMENT, 351628560, 9999, 4, 2, # 2, 6, 4, 11840099000, true, false, -1, false
40 Glenley Ter #1, 40 Glenley Ter #1, 02135, Brighton, MA, 42.34843, -71.17147, 5700, FOR_RENT, APARTMENT, 350458317, 9999, 6, 3, # 1, 2, 9, 13130802000, true, false, -1, false
14 Bentley St #1, 14 Bentley St #1, 02135, Brighton, MA, 42.35071, -71.15105, 3200, FOR_RENT, APARTMENT, 2107502488, 9999, 3, 1, # 1, 5, 6, 20474427000, true, false, -1, false
224 Faneuil St #2, 224 Faneuil St #2, 02135, Brighton, MA, 42.353123, -71.15909, 3750, FOR_RENT, APARTMENT, 2058195354, 9999, 4, 1, # 2, 4, 6, 15304911000, true, false, -1, false
12 Melvin Ave #2, 12 Melvin Ave #2, 02135, Brighton, MA, 42.344788, -71.14166, 4700, FOR_RENT, APARTMENT, 2098272250, 9999, 4, 2, # 2, 2, 8, 17373963000, true, false, -1, false
4 Wadsworth St #2, 4 Wadsworth St #2, 02134, Allston, MA, 42.35531, -71.12696, 5150, FOR_RENT, APARTMENT, 347177692, 9999, 5, 3, # 2, 2, 7, 17193896000, true, false, -1, false
62 N Beacon St #4, 62 N Beacon St #4, 02134, Allston, MA, 42.354046, -71.140854, 5200, FOR_RENT, APARTMENT, 343718833, 9999, 4, 2, # 4, 8, 4, 19782010000, true, false, -1, false
3 Delaware Pl #2, 3 Delaware Pl #2, 02135, Brighton, MA, 42.3518, -71.152954, 3550, FOR_RENT, APARTMENT, 2080784328, 9999, 3, 2, # 2, 4, 10, 20137633000, true, false, -1, false
4 Adella Pl #G, 4 Adella Pl #G, 02134, Allston, MA, 42.352646, -71.136406, 3500, FOR_RENT, APARTMENT, 2054483698, undefined, 3, 1, # G, 9, 9, 30071857000, true, false, -1, false
65 Surrey St #1, 65 Surrey St #1, 02135, Brighton, MA, 42.350895, -71.155975, 3150, FOR_RENT, APARTMENT, 2090425522, 9999, 3, 1, # 1, 2, 7, 11154943000, true, false, -1, false
9 Bennett St #2, 9 Bennett St #2, 02135, Boston, MA, 42.35126, -71.1529, 3150, FOR_RENT, APARTMENT, 2086233575, 9999, 3, 1, # 2, 8, 5, 14697994000, true, false, -1, false
16 Sutherland Rd APT 2, 16 Sutherland Rd APT 2, 02135, Brighton, MA, 42.337044, -71.15049, 4200, FOR_RENT, APARTMENT, 2121143722, 9999, 4, 2, Apt 2, 1, 2, 20916124000, true, false, -1, false
11 Lothrop St FLOOR 2, 11 Lothrop St FLOOR 2, 02135, Brighton, MA, 42.360203, -71.145454, 3300, FOR_RENT, APARTMENT, 374852641, 9999, 3, 1, Floor 2, 3, 1, 8908311000, true, false, -1, false
72 Strathmore Rd APT 12B, 72 Strathmore Rd APT 12B, 02135, Brighton, MA, 42.33832, -71.149124, 3250, FOR_RENT, APARTMENT, 59094375, 9999, 3, 1, Apt 12B, 4, 6, 13736494000, true, false, -1, false
33 Bigelow St #2, 33 Bigelow St #2, 02135, Brighton, MA, 42.353085, -71.1675, 3400, FOR_RENT, APARTMENT, 2106113872, 9999, 3, 1, # 2, 9, 10, 14344580000, true, false, -1, false
8 Donnybrook Rd #2, 8 Donnybrook Rd #2, 02135, Brighton, MA, 42.35405, -71.15886, 4400, FOR_RENT, APARTMENT, 2058927214, 9999, 4, 2, # 2, 8, 10, 15905419000, true, false, -1, false
35 Bentley St #2, 35 Bentley St #2, 02135, Boston, MA, 42.350857, -71.15144, 9999, FOR_RENT, APARTMENT, 2095081294, 9999, 5, 2, # 2, 3, 1, 20474261000, true, false, -1, false
49 Orkney Rd #3, 49 Orkney Rd #3, 02135, Brighton, MA, 42.337017, -71.149345, 4400, FOR_RENT, APARTMENT, 2083055250, 9999, 4, 2, # 3, 7, 6, 20915858000, true, false, -1, false
66 Perthshire Rd #2, 66 Perthshire Rd #2, 02135, Brighton, MA, 42.353596, -71.16843, 4500, FOR_RENT, APARTMENT, 2106225106, 2200, 4, 2, # 2, 9, 1, 187536000, true, false, -1, false
21 Morrow Rd FLOOR 2, 21 Morrow Rd FLOOR 2, 02135, Brighton, MA, 42.35349, -71.1495, 3200, FOR_RENT, APARTMENT, 2057772589, 9999, 3, 1, Floor 2, 1, 6, 13743197000, true, false, -1, false
19 Litchfield St APT 3, 19 Litchfield St APT 3, 02135, Brighton, MA, 42.35865, -71.14125, 3400, FOR_RENT, APARTMENT, 2058884681, 9999, 3, 1, Apt 3, 1, 2, 15637079000, true, false, -1, false
16 Leicester St FLOOR 2, 16 Leicester St FLOOR 2, 02135, Brighton, MA, 42.349823, -71.15481, 3300, FOR_RENT, APARTMENT, 2058090708, 9999, 3, 1, Floor 2, 2, 7, 15644205000, true, false, -1, false
72 Brooks St #2, 72 Brooks St #2, 02135, Brighton, MA, 42.35512, -71.16243, 3200, FOR_RENT, APARTMENT, 2101963134, 9999, 3, 1, # 2, 9, 8, 17450413000, true, false, -1, false
39 Snow St #1, 39 Snow St #1, 02135, Brighton, MA, 42.345837, -71.14939, 6000, FOR_RENT, APARTMENT, 2060190298, undefined, 4, 3, # 1, 6, 7, 19080444000, true, false, -1, false
17 Hemenway St #14, 17 Hemenway St #14, 02115, Boston, MA, 42.34628, -71.089516, 3200, FOR_RENT, APARTMENT, 343715243, undefined, 0, 1, # 14, 2, 9, 19785442000, true, false, -1, false
20 Chiswick Rd #8, 20 Chiswick Rd #8, 02135, Brighton, MA, 42.3383, -71.15067, 3400, FOR_RENT, APARTMENT, 2064201682, 9999, 3, 1, # 8, 5, 9, 19780958000, true, false, -1, false
65 Gardena St #1, 65 Gardena St #1, 02135, Brighton, MA, 42.353424, -71.14736, 4950, FOR_RENT, APARTMENT, 343738132, 9999, 4, 3, # 1, 8, 6, 19777134000, true, false, -1, false
7 Willoughby St, 7 Willoughby St, 02135, Brighton, MA, 42.347126, -71.16071, 4200, FOR_RENT, APARTMENT, 2121490953, 2000, 4, 2, , 6, 8, 397586000, true, false, -1, false
30 Faneuil St #2, 30 Faneuil St #2, 02135, Brighton, MA, 42.355087, -71.15117, 4800, FOR_RENT, APARTMENT, 2057430764, 9999, 4, 3, # 2, 5, 2, 15636211000, true, false, -1, false
4 Donnybrook Rd #2, 4 Donnybrook Rd #2, 02135, Brighton, MA, 42.35388, -71.1586, 4000, FOR_RENT, APARTMENT, 341044273, 9999, 4, 2, # 2, 7, 9, 20829202000, true, false, -1, false
490 Washington St #2, 490 Washington St #2, 02135, Boston, MA, 42.348698, -71.16119, 4950, FOR_RENT, APARTMENT, 2088622349, 9999, 5, 3, # 2, 1, 3, 10549365000, true, false, -1, false
17 Kinross Rd FLOOR 3, 17 Kinross Rd FLOOR 3, 02135, Brighton, MA, 42.340214, -71.14968, 3600, FOR_RENT, APARTMENT, 2059303310, 9999, 3, 2, Floor 3, 10, 6, 15643465000, true, false, -1, false
31 Mansfield St #2, 31 Mansfield St #2, 02134, Allston, MA, 42.358196, -71.13093, 5200, FOR_RENT, APARTMENT, 346925411, 9999, 4, 3, # 2, 2, 5, 17449275000, true, false, -1, false
36 Orkney Rd APT 3, 36 Orkney Rd APT 3, 02135, Brighton, MA, 42.33672, -71.149765, 4400, FOR_RENT, APARTMENT, 59095047, 9999, 4, 2, Apt 3, 2, 9, 19101784000, true, false, -1, false
70 Langley Rd #1, 70 Langley Rd #1, 02135, Brighton, MA, 42.349422, -71.165085, 5700, FOR_RENT, APARTMENT, 340656348, 9999, 4, 3, # 1, 2, 1, 20916299000, true, false, -1, false
12 Cummings Rd #2, 12 Cummings Rd #2, 02135, Brighton, MA, 42.34019, -71.14347, 5000, FOR_RENT, APARTMENT, 2107935091, 9999, 5, 2, # 2, 9, 5, 10553734000, true, false, -1, false
1561 Commonwealth Ave #3, 1561 Commonwealth Ave #3, 02135, Brighton, MA, 42.344433, -71.14213, 2900, FOR_RENT, APARTMENT, 350457580, 9999, 2, 1, # 3, 9, 1, 13131802000, true, false, -1, false
14-18 Westford St #7R, 14-18 Westford St #7R, 02134, Allston, MA, 42.362244, -71.1348, 3100, FOR_RENT, APARTMENT, 348817241, 750, 2, 1, # 7R, 6, 3, 14951260000, true, false, -1, false
128 Parsons St #2, 128 Parsons St #2, 02135, Brighton, MA, 42.354424, -71.15557, 5500, FOR_RENT, APARTMENT, 2057621662, 9999, 5, 3, # 2, 6, 9, 15377162000, true, false, -1, false
108 Kenrick St #4, 108 Kenrick St #4, 02135, Brighton, MA, 42.346447, -71.16721, 5400, FOR_RENT, APARTMENT, 347887478, 9999, 4, 2, # 4, 9, 1, 16164698000, true, false, -1, false
57 Hobart St #1, 57 Hobart St #1, 02135, Brighton, MA, 42.35524, -71.15999, 3300, FOR_RENT, APARTMENT, 2098348131, 9999, 3, 1, # 1, 4, 10, 15917445000, true, false, -1, false
72 Hobart St #2, 72 Hobart St #2, 02135, Brighton, MA, 42.355057, -71.16087, 5300, FOR_RENT, APARTMENT, 2105711367, 9999, 5, 2, # 2, 9, 2, 13132955000, true, false, -1, false
122 Bennett St #1, 122 Bennett St #1, 02135, Brighton, MA, 42.351704, -71.159515, 3150, FOR_RENT, APARTMENT, 2105123403, 9999, 3, 1, # 1, 2, 4, 15377284000, true, false, -1, false
319 Summit Ave #1, 319 Summit Ave #1, 02135, Brighton, MA, 42.345306, -71.139854, 5500, FOR_RENT, APARTMENT, 2098442172, 9999, 5, 2, # 1, 10, 5, 11931669000, true, false, -1, false
33 Harriet St FLOOR 2, 33 Harriet St FLOOR 2, 02135, Brighton, MA, 42.353443, -71.15596, 4000, FOR_RENT, APARTMENT, 2062621319, 9999, 4, 1, Floor 2, 1, 10, 14344015000, true, false, -1, false
68 Glencoe St #3, 68 Glencoe St #3, 02135, Brighton, MA, 42.353233, -71.148865, 3500, FOR_RENT, APARTMENT, 348170425, 9999, 3, 1, # 3, 1, 6, 15916397000, true, false, -1, false
8 Sparhawk St #1, 8 Sparhawk St #1, 02135, Boston, MA, 42.350338, -71.14871, 4800, FOR_RENT, APARTMENT, 2105352832, 9999, 4, 2, # 1, 10, 10, 16680438000, true, false, -1, false
74 Leicester St SUITE 1, 74 Leicester St SUITE 1, 02135, Brighton, MA, 42.351887, -71.153984, 4700, FOR_RENT, APARTMENT, 346927181, 9999, 5, 4, Suite 1, 1, 10, 17448070000, true, false, -1, false
15 Sparhawk St #1, 15 Sparhawk St #1, 02135, Brighton, MA, 42.351124, -71.14939, 3600, FOR_RENT, APARTMENT, 247150366, 9999, 3, 2, # 1, 6, 4, 19004575000, true, false, -1, false
49 Allston St #1, 49 Allston St #1, 02134, Allston, MA, 42.351543, -71.13593, 4800, FOR_RENT, APARTMENT, 2094679435, 9999, 4, 2, # 1, 8, 5, 19276332000, true, false, -1, false
6 Athol St APT 1, 6 Athol St APT 1, 02134, Allston, MA, 42.361324, -71.13401, 5000, FOR_RENT, APARTMENT, 418273966, 9999, 5, 3, Apt 1, 6, 9, 6403354000, true, false, -1, false
64 Etna St #1, 64 Etna St #1, 02135, Brighton, MA, 42.353313, -71.14739, 3800, FOR_RENT, APARTMENT, 2105870568, 9999, 4, 2, # 1, 3, 6, 20473871000, true, false, -1, false
50 Atkins St #1, 50 Atkins St #1, 02135, Boston, MA, 42.35332, -71.16978, 3300, FOR_RENT, APARTMENT, 2118926323, 9999, 3, 1, # 1, 6, 1, 14425598000, true, false, -1, false
53 Shannon St #1, 53 Shannon St #1, 02135, Brighton, MA, 42.34601, -71.15017, 3200, FOR_RENT, APARTMENT, 2079208959, 9999, 3, 1, # 1, 2, 5, 15975647000, true, false, -1, false
30 Arlington St #3, 30 Arlington St #3, 02135, Brighton, MA, 42.35193, -71.15334, 3600, FOR_RENT, APARTMENT, 344606475, 9999, 3, 2, # 3, 3, 7, 19103447000, true, false, -1, false
138 Newton St #2, 138 Newton St #2, 02135, Brighton, MA, 42.3559, -71.16876, 3400, FOR_RENT, APARTMENT, 2107274481, 9999, 3, 2, # 2, 2, 4, 20913829000, true, false, -1, false
70 Antwerp St #1, 70 Antwerp St #1, 02135, Brighton, MA, 42.3605, -71.13962, 3200, FOR_RENT, APARTMENT, 348170843, 9999, 3, 1, # 1, 4, 10, 15916149000, true, false, -1, false
68 Tremont St #2, 68 Tremont St #2, 02135, Brighton, MA, 42.350418, -71.17139, 3500, FOR_RENT, APARTMENT, 347887831, 9999, 3, 1, # 2, 1, 4, 16164273000, true, false, -1, false
65 Lewis St APT 402, 65 Lewis St APT 402, 02128, Boston, MA, 42.36786, -71.04197, 2850, FOR_RENT, APARTMENT, 333605453, 600, 1, 1, Apt 402, 8, 3, 356738000, true, false, -1, false
2 Glenley Ter #3, 2 Glenley Ter #3, 02135, Brighton, MA, 42.348225, -71.16994, 5500, FOR_RENT, APARTMENT, 350458512, 9999, 5, 3, # 3, 3, 5, 13130529000, true, false, -1, false
77 Bigelow St #1, 77 Bigelow St #1, 02135, Brighton, MA, 42.354603, -71.166885, 4600, FOR_RENT, APARTMENT, 2119540765, 9999, 4, 2, # 1, 6, 9, 13733122000, true, false, -1, false
26 Brackett St #1, 26 Brackett St #1, 02135, Brighton, MA, 42.351162, -71.16549, 3300, FOR_RENT, APARTMENT, 2099250024, 9999, 3, 2, # 1, 4, 5, 13741954000, true, false, -1, false
28 Leicester St #2, 28 Leicester St #2, 02135, Brighton, MA, 42.35015, -71.15466, 3400, FOR_RENT, APARTMENT, 2110747457, 9999, 3, 2, # 2, 8, 9, 15636418000, true, false, -1, false
43 Winship St #3, 43 Winship St #3, 02135, Brighton, MA, 42.34713, -71.15206, 4200, FOR_RENT, APARTMENT, 2058196145, 9999, 4, 2, # 3, 8, 4, 15978519000, true, false, -1, false
37 Ransom Rd #2, 37 Ransom Rd #2, 02135, Brighton, MA, 42.34275, -71.145744, 3200, FOR_RENT, APARTMENT, 2106254685, 9999, 3, 1, # 2, 5, 2, 17449892000, true, false, -1, false
21 Claymoss Rd #1, 21 Claymoss Rd #1, 02135, Boston, MA, 42.34402, -71.1446, 3200, FOR_RENT, APARTMENT, 2118637003, 9999, 3, 1, # 1, 3, 3, 19263271000, true, false, -1, false
650 Columbus Ave #434, 650 Columbus Ave #434, 02118, Boston, MA, 42.33859, -71.08312, 3300, FOR_RENT, APARTMENT, 440330719, 720, 1, 1, # 434, 9, 7, 3200410000, true, false, -1, false
8 Winter St #1103, 8 Winter St #1103, 02108, Boston, MA, 42.35552, -71.06166, 3200, FOR_RENT, APARTMENT, 2058145112, 608, 1, 1, # 1103, 2, 7, 4057883000, true, false, -1, false
475 Shawmut Ave APT 2, 475 Shawmut Ave APT 2, 02118, Boston, MA, 42.338947, -71.07589, 3500, FOR_RENT, APARTMENT, 2079157994, 950, 2, 1, Apt 2, 1, 2, 351696000, true, false, -1, false
780 William T Morrissey Blvd #1B-1BA-644SQFT, 780 William T Morrissey Blvd #1B-1BA-644SQFT, 02122, Dorchester, MA, 42.295498, -71.046715, 3158, FOR_RENT, APARTMENT, 439777838, 644, 1, 1, # 1B-1Ba-644Sqft, 8, 1, 4477664000, true, false, -1, false
1079 Commonwealth Ave APT 532, 1079 Commonwealth Ave APT 532, 02215, Boston, MA, 42.352787, -71.12451, 4700, FOR_RENT, APARTMENT, 440956161, 1660, 3, 2, Apt 532, 7, 7, 1646315000, true, false, -1, false
130-140 Bowdoin St #1106, 130-140 Bowdoin St #1106, 02108, Boston, MA, 42.35862, -71.06247, 3000, FOR_RENT, APARTMENT, 2054752511, 570, 1, 1, # 1106, 8, 10, 11952205000, true, false, -1, false
1482 Tremont St #305, 1482 Tremont St #305, 02120, Roxbury Crossing, MA, 42.33176, -71.09868, 4566, FOR_RENT, APARTMENT, 2053079409, 948, 2, 1, # 305, 3, 4, 8874717000, true, false, -1, false
43 Smith St #S024C, 43 Smith St #S024C, 02120, Roxbury Crossing, MA, 42.333973, -71.09865, 5400, FOR_RENT, APARTMENT, 439928634, 1444, 3, 2, # S024C, 7, 1, 4057842000, true, false, -1, false
106 Tremont St #116001, 106 Tremont St #116001, 02135, Brighton, MA, 42.350887, -71.1733, 2895, FOR_RENT, APARTMENT, 402689450, 1000, 2, 1, # 116001, 10, 9, 7079130000, true, false, -1, false
160 E Berkeley St APT 515, 160 E Berkeley St APT 515, 02118, Boston, MA, 42.34383, -71.06467, 5400, FOR_RENT, APARTMENT, 2126266428, 1200, 3, 1, Apt 515, 9, 1, 4936587000, true, false, -1, false
40 Malvern St #502, 40 Malvern St #502, 02134, Allston, MA, 42.354015, -71.12504, 4150, FOR_RENT, APARTMENT, 2072797408, 840, 2, 2, # 502, 8, 2, 4238084000, true, false, -1, false
56-58 Selkirk Rd #56-2, 56-58 Selkirk Rd #56-2, 02135, Brighton, MA, 42.33929, -71.149704, 2700, FOR_RENT, APARTMENT, 441843002, 860, 2, 1, # 56-2, 8, 7, 276961000, true, false, -1, false
36 Quint Ave APT 3, 36 Quint Ave APT 3, 02134, Allston, MA, 42.352024, -71.13385, 2495, FOR_RENT, APARTMENT, 2106495376, undefined, 1, 1, Apt 3, 10, 4, 9923060000, true, false, -1, false
99 Border St #310, 99 Border St #310, 02128, Boston, MA, 42.372364, -71.041245, 3150, FOR_RENT, APARTMENT, 439487695, 835, 2, 1, # 310, 3, 2, 5005730000, true, false, -1, false
223 Harvard Ave APT 8, 223 Harvard Ave APT 8, 02134, Allston, MA, 42.349262, -71.13053, 3400, FOR_RENT, APARTMENT, 59086562, 1000, 2, 1, Apt 8, 5, 1, 12945797000, true, false, -1, false
80 Fuller St #FDAF547CA, 80 Fuller St #FDAF547CA, 02124, Dorchester Center, MA, 42.28238, -71.06918, 4500, FOR_RENT, APARTMENT, 350771339, 1300, 3, 2, # fdaf547ca, 2, 7, 12956537000, true, false, -1, false
9 Gardner Ter #150454, 9 Gardner Ter #150454, 02134, Allston, MA, 42.35294, -71.1261, 4200, FOR_RENT, APARTMENT, 2076974112, 2000, 3, 2, # 150454, 10, 3, 10458752000, true, false, -1, false
16 Highgate St #303, 16 Highgate St #303, 02134, Allston, MA, 42.35538, -71.131615, 3895, FOR_RENT, APARTMENT, 2059263526, 845, 2, 2, # 303, 6, 1, 2928787000, true, false, -1, false
917 Bennington St #206, 917 Bennington St #206, 02128, Boston, MA, 42.385426, -71.00984, 3200, FOR_RENT, APARTMENT, 2071232908, 1196, 2, 2, # 206, 10, 2, 6537655000, true, false, -1, false
1 Ashford Ct #505, 1 Ashford Ct #505, 02134, Allston, MA, 42.354168, -71.12616, 3500, FOR_RENT, APARTMENT, 2053087523, undefined, 1, 1, # 505, 10, 9, 23311062000, true, false, -1, false
775 Morton St #C722AE6CF, 775 Morton St #C722AE6CF, 02126, Mattapan, MA, 42.284348, -71.0922, 2950, FOR_RENT, APARTMENT, 2052856157, 950, 2, 1, # c722ae6cf, 2, 9, 21926470000, true, false, -1, false
3 Carol Ave #15-10, 3 Carol Ave #15-10, 02135, Brighton, MA, 42.345207, -71.14093, 3095, FOR_RENT, APARTMENT, 440948116, undefined, 2, 1, # 15-10, 3, 2, 1729062000, true, false, -1, false
484 Tremont St #72, 484 Tremont St #72, 02116, Boston, MA, 42.34593, -71.06907, 2805, FOR_RENT, APARTMENT, 440264636, 660, 1, 1, # 72, 7, 9, 3284076000, true, false, -1, false
72 Gardner St #F1, 72 Gardner St #F1, 02134, Allston, MA, 42.353912, -71.12727, 4395, FOR_RENT, APARTMENT, 2103242614, 1000, 4, 2, # F1, 9, 1, 23497242000, true, false, -1, false
735 Truman Pkwy #2675068, 735 Truman Pkwy #2675068, 02136, Hyde Park, MA, 42.251705, -71.12055, 2510, FOR_RENT, APARTMENT, 2063194826, 715, 1, 1, # 2675068, 10, 10, 266312000, true, false, -1, false
11 Royce Rd APT 4, 11 Royce Rd APT 4, 02134, Boston, MA, 42.34899, -71.13182, 1950, FOR_RENT, APARTMENT, 2126747455, undefined, 0, 1, Apt 4, 2, 6, 804970000, true, false, -1, false
740 E 7th St APT 18, 740 E 7th St APT 18, 02127, Boston, MA, 42.3326, -71.03075, 2450, FOR_RENT, APARTMENT, 2060111632, undefined, 1, 1, Apt 18, 7, 6, 4428061000, true, false, -1, false
245 Sumner St #104, 245 Sumner St #104, 02128, Boston, MA, 42.36793, -71.03844, 3475, FOR_RENT, APARTMENT, 2078574857, 975, 2, 2, # 104, 1, 3, 4946988000, true, false, -1, false
455 E 1st St #402, 455 E 1st St #402, 02127, Boston, MA, 42.337894, -71.04202, 4000, FOR_RENT, APARTMENT, 2095373617, 1000, 1, 1, # 402, 2, 9, 10634369000, true, false, -1, false
4 Elko St #810, 4 Elko St #810, 02135, Brighton, MA, 42.349636, -71.149414, 3200, FOR_RENT, APARTMENT, 2078832491, 795, 3, 1, # 810, 10, 9, 1368978000, true, false, -1, false
33 Maverick Sq #301, 33 Maverick Sq #301, 02128, Boston, MA, 42.36934, -71.039024, 2800, FOR_RENT, APARTMENT, 401813418, 724, 2, 1, # 301, 5, 10, 7998976000, true, false, -1, false
111 Atlantic Ave APT 220, 111 Atlantic Ave APT 220, 02109, Boston, MA, 42.361366, -71.052635, 3425, FOR_RENT, APARTMENT, 402099861, 720, 1, 1, Apt 220, 5, 8, 421932000, true, false, -1, false
1970 Commonwealth Ave #1980-32, 1970 Commonwealth Ave #1980-32, 02135, Brighton, MA, 42.338963, -71.15689, 2100, FOR_RENT, APARTMENT, 441821538, 900, 1, 1, # 1980-32, 8, 3, 1373949000, true, false, -1, false
95 Endicott St #4A97F72DB, 95 Endicott St #4A97F72DB, 02113, Boston, MA, 42.364254, -71.05713, 3600, FOR_RENT, APARTMENT, 350201343, 1400, 3, 2, # 4a97f72db, 8, 2, 13548619000, true, false, -1, false
11 Woodside Ave #3A, 11 Woodside Ave #3A, 02130, Jamaica Plain, MA, 42.309742, -71.10351, 3100, FOR_RENT, APARTMENT, 441897289, 1069, 3, 1, # 3A, 6, 2, 62037000, true, false, -1, false
9-11 Moraine St #2, 9-11 Moraine St #2, 02130, Boston, MA, 42.319946, -71.112434, 4300, FOR_RENT, APARTMENT, 339517786, 1395, 3, 1, # 2, 8, 4, 73879000, true, false, -1, false
124 Marine Rd APT 1, 124 Marine Rd APT 1, 02127, South Boston, MA, 42.330833, -71.034134, 3400, FOR_RENT, APARTMENT, 2083409717, 1200, 2, 1, Apt 1, 1, 8, 92853000, true, false, -1, false
49 Leyden St #1, 49 Leyden St #1, 02128, East Boston, MA, 42.389904, -71.01055, 3300, FOR_RENT, APARTMENT, 318226986, 1085, 2, 2, # 1, 3, 6, 102919000, true, false, -1, false
78 Hillside St APT 3, 78 Hillside St APT 3, 02120, Boston, MA, 42.3303, -71.10269, 6200, FOR_RENT, TOWNHOUSE, 2108994418, 1200, 4, 1, Apt 3, 4, 8, 183356000, true, false, -1, false
39 Hemenway St APT 1, 39 Hemenway St APT 1, 02115, Boston, MA, 42.34553, -71.089714, 8000, FOR_RENT, APARTMENT, 59176969, 9999, 4, 2, Apt 1, 4, 10, 161979000, true, false, -1, false
99 Salem St #2, 99 Salem St #2, 02113, Boston, MA, 42.363914, -71.05554, 3200, FOR_RENT, APARTMENT, 2077460838, 575, 2, 1, # 2, 10, 7, 154514000, true, false, -1, false
298 Commonwealth Ave APT 202, 298 Commonwealth Ave APT 202, 02115, Boston, MA, 42.350437, -71.084885, 3300, FOR_RENT, APARTMENT, 59177075, 512, 1, 1, Apt 202, 3, 1, 178175000, true, false, -1, false
185 Hillside St, 185 Hillside St, 02120, Mission Hill, MA, 42.33197, -71.10816, 8000, FOR_RENT, TOWNHOUSE, 2100555662, 9999, 5, 3, , 4, 7, 340608000, true, false, -1, false
128 Roxbury St, 128 Roxbury St, 02119, Boston, MA, 42.33026, -71.08848, 8000, FOR_RENT, TOWNHOUSE, 2085952751, 9999, 5, 3, , 4, 1, 247681000, true, false, -1, false
18 Gerald Rd #1, 18 Gerald Rd #1, 02135, Brighton, MA, 42.340767, -71.160255, 11200, FOR_RENT, APARTMENT, 441700635, 2200, 6, 3, # 1, 10, 10, 942771000, true, false, -1, false
2 Lamson Ct #1B, 2 Lamson Ct #1B, 02128, Boston, MA, 42.36624, -71.0329, 5500, FOR_RENT, APARTMENT, 441824105, 1700, 4, 3, # 1B, 4, 8, 348176000, true, false, -1, false
190 Green St, 190 Green St, 02130, Boston, MA, 42.309963, -71.10543, 2695, FOR_RENT, APARTMENT, 59133747, 625, 1, 1, , 9, 4, 250515000, true, false, -1, false
41 Hobson St #2, 41 Hobson St #2, 02135, Brighton, MA, 42.354237, -71.16179, 4800, FOR_RENT, APARTMENT, 2119159270, 9999, 5, 2, # 2, 3, 10, 20473279000, true, false, -1, false
41 Grove St #3A, 41 Grove St #3A, 02114, Boston, MA, 42.359768, -71.06882, 3800, FOR_RENT, APARTMENT, 2080623051, 725, 2, 1, # 3A, 4, 5, 258781000, true, false, -1, false
43 Bennett St #2, 43 Bennett St #2, 02135, Brighton, MA, 42.351658, -71.15521, 5000, FOR_RENT, APARTMENT, 342130488, 9999, 5, 3, # 2, 9, 4, 20391632000, true, false, -1, false
130 Glenville Ave #1A, 130 Glenville Ave #1A, 02134, Allston, MA, 42.34905, -71.137085, 3300, FOR_RENT, APARTMENT, 441774355, 1200, 3, 1, # 1A, 1, 1, 599847000, true, false, -1, false
35 Falkland St #1, 35 Falkland St #1, 02135, Brighton, MA, 42.35537, -71.15844, 3300, FOR_RENT, APARTMENT, 2079151025, 9999, 3, 1, # 1, 3, 5, 15980815000, true, false, -1, false
6 Harvard Ter #1, 6 Harvard Ter #1, 02134, Allston, MA, 42.353886, -71.13256, 4200, FOR_RENT, APARTMENT, 2095067346, 9999, 3, 2, # 1, 8, 5, 11311802000, true, false, -1, false
155 Euston Rd #14, 155 Euston Rd #14, 02135, Brighton, MA, 42.3441, -71.14518, 2575, FOR_RENT, APARTMENT, 344410835, 850, 0, 1, # 14, 2, 7, 19230174000, true, false, -1, false
20 Murdock St #2, 20 Murdock St #2, 02135, Brighton, MA, 42.350796, -71.1478, 5200, FOR_RENT, APARTMENT, 2085763960, 9999, 5, 3, # 2, 2, 7, 11154696000, true, false, -1, false
26 Pratt St #1, 26 Pratt St #1, 02134, Allston, MA, 42.355225, -71.128784, 5000, FOR_RENT, APARTMENT, 2078123540, 9999, 4, 2, # 1, 7, 6, 19274070000, true, false, -1, false
10 Arlington St #1, 10 Arlington St #1, 02135, Brighton, MA, 42.351784, -71.152405, 4700, FOR_RENT, APARTMENT, 343870220, 9999, 5, 4, # 1, 1, 8, 19695532000, true, false, -1, false
22 Sparhawk St #2, 22 Sparhawk St #2, 02135, Brighton, MA, 42.351074, -71.15083, 5250, FOR_RENT, APARTMENT, 2080334566, 9999, 5, 3, # 2, 7, 8, 11414875000, true, false, -1, false
1522 Commonwealth Ave #2, 1522 Commonwealth Ave #2, 02135, Brighton, MA, 42.345413, -71.14116, 4700, FOR_RENT, APARTMENT, 344606126, 9999, 4, 2, # 2, 7, 3, 19103917000, true, false, -1, false
50 Brooks St #2, 50 Brooks St #2, 02135, Brighton, MA, 42.355804, -71.16229, 3200, FOR_RENT, APARTMENT, 2105900077, 9999, 3, 1, # 2, 3, 2, 19261243000, true, false, -1, false
91 Parsons St #1, 91 Parsons St #1, 02135, Brighton, MA, 42.35353, -71.15388, 5000, FOR_RENT, APARTMENT, 2103441765, 9999, 5, 2, # 1, 1, 7, 13132531000, true, false, -1, false
26 Easton St #3, 26 Easton St #3, 02134, Allston, MA, 42.36021, -71.13014, 3100, FOR_RENT, APARTMENT, 343720104, 9999, 0, 1, # 3, 10, 9, 19781405000, true, false, -1, false
229 Chestnut Hill Ave #1, 229 Chestnut Hill Ave #1, 02135, Brighton, MA, 42.33992, -71.1557, 5800, FOR_RENT, APARTMENT, 2105631522, 1400, 4, 2, # 1, 3, 4, 3381764000, true, false, -1, false
21 Ransom Rd #2, 21 Ransom Rd #2, 02135, Brighton, MA, 42.343445, -71.144936, 4500, FOR_RENT, APARTMENT, 2106015417, 9999, 4, 2, # 2, 1, 6, 11145562000, true, false, -1, false
25 Murdock St FLOOR 1, 25 Murdock St FLOOR 1, 02135, Brighton, MA, 42.350636, -71.14732, 4850, FOR_RENT, APARTMENT, 344711148, 9999, 4, 2, Floor 1, 2, 9, 19004252000, true, false, -1, false
1100 Vfw Pkwy #3306, 1100 Vfw Pkwy #3306, 02132, West Roxbury, MA, 42.284, -71.17139, 2400, FOR_RENT, APARTMENT, 441822795, 738, 1, 1, # 3306, 1, 2, 352845000, true, false, -1, false
46 Donnybrook Rd #2, 46 Donnybrook Rd #2, 02135, Brighton, MA, 42.354378, -71.16065, 4400, FOR_RENT, APARTMENT, 350741243, 9999, 4, 2, # 2, 2, 7, 12969461000, true, false, -1, false
11 Oakland St #1, 11 Oakland St #1, 02135, Brighton, MA, 42.349712, -71.15762, 3600, FOR_RENT, APARTMENT, 2078285887, 9999, 3, 1, # 1, 3, 5, 15903524000, true, false, -1, false
64 Wallingford Rd #2, 64 Wallingford Rd #2, 02135, Brighton, MA, 42.34363, -71.15155, 4400, FOR_RENT, APARTMENT, 2057850820, 9999, 4, 2, # 2, 8, 1, 15916745000, true, false, -1, false
35 Orkney Rd APT 3, 35 Orkney Rd APT 3, 02135, Brighton, MA, 42.33716, -71.149475, 4400, FOR_RENT, APARTMENT, 2108826138, 9999, 4, 2, Apt 3, 10, 8, 15980653000, true, false, -1, false
44 Gardena St #3, 44 Gardena St #3, 02135, Brighton, MA, 42.35381, -71.14823, 4000, FOR_RENT, APARTMENT, 347121962, 9999, 3, 2, # 3, 1, 5, 17276645000, true, false, -1, false
9-11 Burney St #407, 9-11 Burney St #407, 02120, Roxbury Crossing, MA, 42.33165, -71.09968, 3250, FOR_RENT, APARTMENT, 2054773005, 577, 1, 1, # 407, 10, 9, 1125071000, true, false, -1, false
9 Lothrop St #1, 9 Lothrop St #1, 02135, Brighton, MA, 42.360226, -71.14549, 3400, FOR_RENT, APARTMENT, 2095302800, 9999, 3, 1, # 1, 10, 9, 11837577000, true, false, -1, false
109 Lanark Rd #1, 109 Lanark Rd #1, 02135, Brighton, MA, 42.340828, -71.148384, 4300, FOR_RENT, APARTMENT, 351631834, 9999, 4, 1, # 1, 6, 10, 11835618000, true, false, -1, false
36 Arlington St #1, 36 Arlington St #1, 02135, Brighton, MA, 42.351967, -71.15346, 4700, FOR_RENT, APARTMENT, 2096716859, 9999, 5, 4, # 1, 5, 7, 19103313000, true, false, -1, false
96 Linden St APT 3, 96 Linden St APT 3, 02134, Allston, MA, 42.351467, -71.12993, 2600, FOR_RENT, APARTMENT, 59087925, 613, 1, 1, Apt 3, 5, 10, 2601484000, true, false, -1, false
605 E 3rd St #1, 605 E 3rd St #1, 02127, Boston, MA, 42.336357, -71.03588, 4325, FOR_RENT, APARTMENT, 2080565628, 1000, 3, 1, # 1, 7, 8, 441060000, true, false, -1, false
18 Claymoss Rd #2, 18 Claymoss Rd #2, 02135, Brighton, MA, 42.34359, -71.144745, 4400, FOR_RENT, APARTMENT, 2101654932, 9999, 4, 2, # 2, 2, 8, 15643266000, true, false, -1, false
6 Sparhawk St #10, 6 Sparhawk St #10, 02135, Brighton, MA, 42.35029, -71.14842, 4800, FOR_RENT, APARTMENT, 344710204, 9999, 4, 2, # 10, 9, 6, 19004821000, true, false, -1, false
30 Raymond St #36, 30 Raymond St #36, 02134, Allston, MA, 42.361786, -71.13405, 5400, FOR_RENT, APARTMENT, 343719664, 9999, 5, 3, # 36, 7, 1, 19781715000, true, false, -1, false
25 Eulita Ter #2, 25 Eulita Ter #2, 02135, Brighton, MA, 42.34633, -71.15285, 4300, FOR_RENT, APARTMENT, 341917586, 9999, 4, 2, # 2, 8, 3, 20473590000, true, false, -1, false
24 Tremont St #1, 24 Tremont St #1, 02135, Brighton, MA, 42.349987, -71.16947, 3400, FOR_RENT, APARTMENT, 353473389, 9999, 3, 1, # 1, 7, 5, 10030770000, true, false, -1, false
34 Mapleton St #1, 34 Mapleton St #1, 02135, Brighton, MA, 42.35215, -71.14958, 4200, FOR_RENT, APARTMENT, 2058417970, 9999, 4, 2, # 1, 2, 8, 15980967000, true, false, -1, false
11 Bennett St #2, 11 Bennett St #2, 02135, Brighton, MA, 42.35133, -71.15304, 5400, FOR_RENT, APARTMENT, 342129322, 9999, 5, 4, # 2, 5, 1, 20391983000, true, false, -1, false
38 Murdock St #2, 38 Murdock St #2, 02135, Brighton, MA, 42.35112, -71.14741, 3450, FOR_RENT, APARTMENT, 341547208, 9999, 3, 1, # 2, 9, 2, 20739362000, true, false, -1, false
223 Harrison Ave #2, 223 Harrison Ave #2, 02111, Boston, MA, 42.34781, -71.06289, 2300, FOR_RENT, APARTMENT, 2070060479, 700, 1, 1, # 2, 9, 9, 506301000, true, false, -1, false
10 Mohawk St #A, 10 Mohawk St #A, 02127, Boston, MA, 42.328896, -71.05555, 3600, FOR_RENT, TOWNHOUSE, 441823826, 1542, 2, 2, # A, 7, 10, 349514000, true, false, -1, false
45 Falkland St #2, 45 Falkland St #2, 02135, Boston, MA, 42.35573, -71.15856, 4900, FOR_RENT, APARTMENT, 2126183750, 9999, 5, 2, # 2, 9, 5, 14425788000, true, false, -1, false
75 Alleghany St #1, 75 Alleghany St #1, 02120, Boston, MA, 42.331406, -71.10145, 15200, FOR_RENT, APARTMENT, 2091992781, 3500, 8, 3, # 1, 4, 4, 754439000, true, false, -1, false
10 Eulita Ter #1, 10 Eulita Ter #1, 02135, Boston, MA, 42.346626, -71.152794, 3600, FOR_RENT, APARTMENT, 2126183753, 9999, 3, 2, # 1, 1, 8, 15904015000, true, false, -1, false
40 Falkland St #1, 40 Falkland St #1, 02135, Brighton, MA, 42.355408, -71.158905, 5000, FOR_RENT, APARTMENT, 2080369785, 9999, 5, 2, # 1, 4, 3, 15979317000, true, false, -1, false
1536 Commonwealth Ave #2, 1536 Commonwealth Ave #2, 02135, Brighton, MA, 42.345043, -71.1414, 4700, FOR_RENT, APARTMENT, 2116940881, 9999, 4, 2, # 2, 3, 5, 19263466000, true, false, -1, false
8 Gordon St #6, 8 Gordon St #6, 02134, Allston, MA, 42.353497, -71.14076, 5200, FOR_RENT, APARTMENT, 343718969, 9999, 4, 2, # 6, 9, 7, 19781852000, true, false, -1, false
60 Wallingford Rd #2, 60 Wallingford Rd #2, 02135, Brighton, MA, 42.343483, -71.15138, 4300, FOR_RENT, APARTMENT, 2106156260, 9999, 4, 2, # 2, 5, 9, 20914121000, true, false, -1, false
4 Woodmont St #1, 4 Woodmont St #1, 02135, Brighton, MA, 42.356636, -71.162575, 4300, FOR_RENT, APARTMENT, 340652308, 9999, 4, 2, # 1, 3, 6, 20917168000, true, false, -1, false
39 Oakland St #2, 39 Oakland St #2, 02135, Brighton, MA, 42.350574, -71.15773, 5200, FOR_RENT, APARTMENT, 348041946, 9999, 4, 2, # 2, 7, 3, 15979872000, true, false, -1, false
61 Oak Square Ave #1, 61 Oak Square Ave #1, 02135, Brighton, MA, 42.35182, -71.16349, 3200, FOR_RENT, APARTMENT, 2058927175, 9999, 3, 1, # 1, 8, 8, 15917219000, true, false, -1, false
8 Corinne Rd #1, 8 Corinne Rd #1, 02135, Brighton, MA, 42.35551, -71.1594, 3200, FOR_RENT, APARTMENT, 2057146945, 9999, 3, 1, # 1, 9, 3, 15905553000, true, false, -1, false
2 Bennett St #1, 2 Bennett St #1, 02135, Brighton, MA, 42.350906, -71.15242, 3150, FOR_RENT, APARTMENT, 344237847, 9999, 3, 1, # 1, 8, 8, 19262821000, true, false, -1, false
21 Portsmouth St APT 1, 21 Portsmouth St APT 1, 02135, Brighton, MA, 42.36007, -71.14448, 5200, FOR_RENT, APARTMENT, 344136330, undefined, 4, 2, Apt 1, 7, 1, 19275319000, true, false, -1, false
42 Easton St #2, 42 Easton St #2, 02134, Allston, MA, 42.359776, -71.13061, 3400, FOR_RENT, APARTMENT, 374837055, 9999, 3, 1, # 2, 6, 3, 8908758000, true, false, -1, false
55 Easton St #1, 55 Easton St #1, 02134, Allston, MA, 42.359806, -71.13131, 3400, FOR_RENT, APARTMENT, 2095336816, 99999, 3, 1, # 1, 10, 5, 10203917000, true, false, -1, false
37 Blenford Rd #2, 37 Blenford Rd #2, 02135, Brighton, MA, 42.344913, -71.15072, 4500, FOR_RENT, APARTMENT, 351630838, 9999, 4, 2, # 2, 8, 7, 11837164000, true, false, -1, false
7 Dickinson Rd #1, 7 Dickinson Rd #1, 02135, Brighton, MA, 42.348495, -71.16147, 3200, FOR_RENT, APARTMENT, 2079921132, 9999, 3, 1, # 1, 7, 8, 15905841000, true, false, -1, false
29 Wilson Park #3, 29 Wilson Park #3, 02135, Brighton, MA, 42.340942, -71.145454, 4400, FOR_RENT, APARTMENT, 2098437876, 9999, 4, 2, # 3, 1, 8, 19104215000, true, false, -1, false
60 Hobart St #1, 60 Hobart St #1, 02135, Brighton, MA, 42.35492, -71.16011, 3300, FOR_RENT, APARTMENT, 2106063366, 9999, 3, 1, # 1, 8, 1, 20739560000, true, false, -1, false
48 Tremont St #1, 48 Tremont St #1, 02135, Brighton, MA, 42.35017, -71.170586, 3400, FOR_RENT, APARTMENT, 2065463388, 9999, 3, 1, # 1, 6, 10, 10458438000, true, false, -1, false
180 Faneuil St #3, 180 Faneuil St #3, 02135, Brighton, MA, 42.354122, -71.15743, 5500, FOR_RENT, APARTMENT, 2064325810, 9999, 5, 2, # 3, 4, 8, 13661412000, true, false, -1, false
64 Hobart St #1, 64 Hobart St #1, 02135, Brighton, MA, 42.355007, -71.16047, 3200, FOR_RENT, APARTMENT, 2098646402, 9999, 3, 1, # 1, 5, 9, 15916928000, true, false, -1, false
39 Blenford Rd #1, 39 Blenford Rd #1, 02135, Boston, MA, 42.34472, -71.15061, 3300, FOR_RENT, APARTMENT, 2091813620, 9999, 3, 1, # 1, 10, 9, 15980038000, true, false, -1, false
17 Sparhawk St #4, 17 Sparhawk St #4, 02135, Brighton, MA, 42.35121, -71.149925, 4800, FOR_RENT, APARTMENT, 344710760, 9999, 4, 2, # 4, 3, 3, 19004395000, true, false, -1, false
30 Glencoe St #1, 30 Glencoe St #1, 02135, Brighton, MA, 42.354485, -71.14807, 3800, FOR_RENT, APARTMENT, 2059287936, 9999, 3, 2, # 1, 2, 8, 15981562000, true, false, -1, false
3 Glenley Ter #1, 3 Glenley Ter #1, 02135, Brighton, MA, 42.34836, -71.17, 5900, FOR_RENT, APARTMENT, 2080549039, 9999, 6, 3, # 1, 2, 8, 17276881000, true, false, -1, false
12 Shannon St #1, 12 Shannon St #1, 02135, Brighton, MA, 42.346916, -71.14921, 3200, FOR_RENT, APARTMENT, 341152888, 9999, 3, 1, # 1, 5, 9, 20815054000, true, false, -1, false
9 Sparhawk St #2, 9 Sparhawk St #2, 02135, Brighton, MA, 42.350853, -71.148575, 5400, FOR_RENT, APARTMENT, 2112587867, 9999, 4, 3, # 2, 4, 6, 12885160000, true, false, -1, false
41 Gardena St #2, 41 Gardena St #2, 02135, Brighton, MA, 42.353584, -71.148705, 3600, FOR_RENT, APARTMENT, 2105709706, 9999, 3, 1, # 2, 9, 3, 14426055000, true, false, -1, false
11 Dunboy St #2, 11 Dunboy St #2, 02135, Brighton, MA, 42.3525, -71.16462, 3300, FOR_RENT, APARTMENT, 2099041036, 9999, 3, 1, # 2, 4, 10, 15903736000, true, false, -1, false
14 Sparhawk St #2, 14 Sparhawk St #2, 02135, Brighton, MA, 42.350616, -71.149666, 4800, FOR_RENT, APARTMENT, 2107197325, 9999, 4, 2, # 2, 10, 2, 18581424000, true, false, -1, false
77 Colborne Rd #2, 77 Colborne Rd #2, 02135, Brighton, MA, 42.34426, -71.14786, 3000, FOR_RENT, APARTMENT, 344191008, 9999, 2, 1, # 2, 3, 7, 19264911000, true, false, -1, false
48 Cummings Rd APT 1, 48 Cummings Rd APT 1, 02135, Brighton, MA, 42.34094, -71.14511, 5000, FOR_RENT, APARTMENT, 2121269463, 9999, 5, 2, Apt 1, 6, 5, 19262173000, true, false, -1, false
131 Brooks St #1, 131 Brooks St #1, 02135, Brighton, MA, 42.353096, -71.16336, 4800, FOR_RENT, APARTMENT, 350092021, 9999, 4, 2, # 1, 7, 1, 13660169000, true, false, -1, false
80 Brooks St #3, 80 Brooks St #3, 02135, Brighton, MA, 42.354916, -71.16252, 3300, FOR_RENT, APARTMENT, 2057621666, 9999, 3, 1, # 3, 2, 6, 15377870000, true, false, -1, false
156 Strathmore Rd #21, 156 Strathmore Rd #21, 02135, Brighton, MA, 42.33942, -71.15382, 3100, FOR_RENT, APARTMENT, 348029062, 9999, 2, 1, # 21, 9, 4, 15981807000, true, false, -1, false
41 Arlington St #3, 41 Arlington St #3, 02135, Brighton, MA, 42.352306, -71.15364, 3600, FOR_RENT, APARTMENT, 346926984, 9999, 3, 1, # 3, 5, 5, 17448221000, true, false, -1, false
21 Champney St #1, 21 Champney St #1, 02135, Brighton, MA, 42.351643, -71.1685, 5900, FOR_RENT, APARTMENT, 2106014221, 9999, 6, 3, # 1, 5, 4, 20914262000, true, false, -1, false
23 Colborne Rd #2, 23 Colborne Rd #2, 02135, Brighton, MA, 42.34276, -71.14626, 4500, FOR_RENT, APARTMENT, 351628560, 9999, 4, 2, # 2, 1, 1, 11840100000, true, false, -1, false
40 Glenley Ter #1, 40 Glenley Ter #1, 02135, Brighton, MA, 42.34843, -71.17147, 5700, FOR_RENT, APARTMENT, 350458317, 9999, 6, 3, # 1, 1, 7, 13130803000, true, false, -1, false
14 Bentley St #1, 14 Bentley St #1, 02135, Brighton, MA, 42.35071, -71.15105, 3200, FOR_RENT, APARTMENT, 2107502488, 9999, 3, 1, # 1, 3, 1, 20474428000, true, false, -1, false
224 Faneuil St #2, 224 Faneuil St #2, 02135, Brighton, MA, 42.353123, -71.15909, 3750, FOR_RENT, APARTMENT, 2058195354, 9999, 4, 1, # 2, 8, 6, 15304912000, true, false, -1, false
12 Melvin Ave #2, 12 Melvin Ave #2, 02135, Brighton, MA, 42.344788, -71.14166, 4700, FOR_RENT, APARTMENT, 2098272250, 9999, 4, 2, # 2, 2, 4, 17373964000, true, false, -1, false
4 Wadsworth St #2, 4 Wadsworth St #2, 02134, Allston, MA, 42.35531, -71.12696, 5150, FOR_RENT, APARTMENT, 347177692, 9999, 5, 3, # 2, 2, 9, 17193897000, true, false, -1, false
62 N Beacon St #4, 62 N Beacon St #4, 02134, Allston, MA, 42.354046, -71.140854, 5200, FOR_RENT, APARTMENT, 343718833, 9999, 4, 2, # 4, 9, 7, 19782011000, true, false, -1, false
3 Delaware Pl #2, 3 Delaware Pl #2, 02135, Brighton, MA, 42.3518, -71.152954, 3550, FOR_RENT, APARTMENT, 2080784328, 9999, 3, 2, # 2, 1, 10, 20137634000, true, false, -1, false
4 Adella Pl #G, 4 Adella Pl #G, 02134, Allston, MA, 42.352646, -71.136406, 3500, FOR_RENT, APARTMENT, 2054483698, undefined, 3, 1, # G, 8, 6, 30071858000, true, false, -1, false
65 Surrey St #1, 65 Surrey St #1, 02135, Brighton, MA, 42.350895, -71.155975, 3150, FOR_RENT, APARTMENT, 2090425522, 9999, 3, 1, # 1, 4, 2, 11154944000, true, false, -1, false
9 Bennett St #2, 9 Bennett St #2, 02135, Boston, MA, 42.35126, -71.1529, 3150, FOR_RENT, APARTMENT, 2086233575, 9999, 3, 1, # 2, 1, 1, 14697995000, true, false, -1, false
16 Sutherland Rd APT 2, 16 Sutherland Rd APT 2, 02135, Brighton, MA, 42.337044, -71.15049, 4200, FOR_RENT, APARTMENT, 2121143722, 9999, 4, 2, Apt 2, 3, 5, 20916125000, true, false, -1, false
11 Lothrop St FLOOR 2, 11 Lothrop St FLOOR 2, 02135, Brighton, MA, 42.360203, -71.145454, 3300, FOR_RENT, APARTMENT, 374852641, 9999, 3, 1, Floor 2, 3, 10, 8908312000, true, false, -1, false
72 Strathmore Rd APT 12B, 72 Strathmore Rd APT 12B, 02135, Brighton, MA, 42.33832, -71.149124, 3250, FOR_RENT, APARTMENT, 59094375, 9999, 3, 1, Apt 12B, 4, 8, 13736495000, true, false, -1, false
33 Bigelow St #2, 33 Bigelow St #2, 02135, Brighton, MA, 42.353085, -71.1675, 3400, FOR_RENT, APARTMENT, 2106113872, 9999, 3, 1, # 2, 9, 7, 14344581000, true, false, -1, false
8 Donnybrook Rd #2, 8 Donnybrook Rd #2, 02135, Brighton, MA, 42.35405, -71.15886, 4400, FOR_RENT, APARTMENT, 2058927214, 9999, 4, 2, # 2, 10, 10, 15905420000, true, false, -1, false
35 Bentley St #2, 35 Bentley St #2, 02135, Boston, MA, 42.350857, -71.15144, 9999, FOR_RENT, APARTMENT, 2095081294, 9999, 5, 2, # 2, 10, 6, 20474262000, true, false, -1, false
49 Orkney Rd #3, 49 Orkney Rd #3, 02135, Brighton, MA, 42.337017, -71.149345, 4400, FOR_RENT, APARTMENT, 2083055250, 9999, 4, 2, # 3, 6, 2, 20915859000, true, false, -1, false
66 Perthshire Rd #2, 66 Perthshire Rd #2, 02135, Brighton, MA, 42.353596, -71.16843, 4500, FOR_RENT, APARTMENT, 2106225106, 2200, 4, 2, # 2, 7, 10, 187537000, true, false, -1, false
21 Morrow Rd FLOOR 2, 21 Morrow Rd FLOOR 2, 02135, Brighton, MA, 42.35349, -71.1495, 3200, FOR_RENT, APARTMENT, 2057772589, 9999, 3, 1, Floor 2, 4, 9, 13743198000, true, false, -1, false
19 Litchfield St APT 3, 19 Litchfield St APT 3, 02135, Brighton, MA, 42.35865, -71.14125, 3400, FOR_RENT, APARTMENT, 2058884681, 9999, 3, 1, Apt 3, 9, 3, 15637080000, true, false, -1, false
16 Leicester St FLOOR 2, 16 Leicester St FLOOR 2, 02135, Brighton, MA, 42.349823, -71.15481, 3300, FOR_RENT, APARTMENT, 2058090708, 9999, 3, 1, Floor 2, 10, 7, 15644206000, true, false, -1, false
72 Brooks St #2, 72 Brooks St #2, 02135, Brighton, MA, 42.35512, -71.16243, 3200, FOR_RENT, APARTMENT, 2101963134, 9999, 3, 1, # 2, 9, 4, 17450414000, true, false, -1, false
39 Snow St #1, 39 Snow St #1, 02135, Brighton, MA, 42.345837, -71.14939, 6000, FOR_RENT, APARTMENT, 2060190298, undefined, 4, 3, # 1, 2, 5, 19080445000, true, false, -1, false
17 Hemenway St #14, 17 Hemenway St #14, 02115, Boston, MA, 42.34628, -71.089516, 3200, FOR_RENT, APARTMENT, 343715243, undefined, 0, 1, # 14, 5, 8, 19785443000, true, false, -1, false
20 Chiswick Rd #8, 20 Chiswick Rd #8, 02135, Brighton, MA, 42.3383, -71.15067, 3400, FOR_RENT, APARTMENT, 2064201682, 9999, 3, 1, # 8, 8, 4, 19780959000, true, false, -1, false
65 Gardena St #1, 65 Gardena St #1, 02135, Brighton, MA, 42.353424, -71.14736, 4950, FOR_RENT, APARTMENT, 343738132, 9999, 4, 3, # 1, 2, 8, 19777135000, true, false, -1, false
7 Willoughby St, 7 Willoughby St, 02135, Brighton, MA, 42.347126, -71.16071, 4200, FOR_RENT, APARTMENT, 2121490953, 2000, 4, 2, , 10, 7, 397587000, true, false, -1, false
30 Faneuil St #2, 30 Faneuil St #2, 02135, Brighton, MA, 42.355087, -71.15117, 4800, FOR_RENT, APARTMENT, 2057430764, 9999, 4, 3, # 2, 6, 6, 15636212000, true, false, -1, false
4 Donnybrook Rd #2, 4 Donnybrook Rd #2, 02135, Brighton, MA, 42.35388, -71.1586, 4000, FOR_RENT, APARTMENT, 341044273, 9999, 4, 2, # 2, 8, 2, 20829203000, true, false, -1, false
490 Washington St #2, 490 Washington St #2, 02135, Boston, MA, 42.348698, -71.16119, 4950, FOR_RENT, APARTMENT, 2088622349, 9999, 5, 3, # 2, 6, 9, 10549366000, true, false, -1, false
17 Kinross Rd FLOOR 3, 17 Kinross Rd FLOOR 3, 02135, Brighton, MA, 42.340214, -71.14968, 3600, FOR_RENT, APARTMENT, 2059303310, 9999, 3, 2, Floor 3, 9, 7, 15643466000, true, false, -1, false
31 Mansfield St #2, 31 Mansfield St #2, 02134, Allston, MA, 42.358196, -71.13093, 5200, FOR_RENT, APARTMENT, 346925411, 9999, 4, 3, # 2, 1, 10, 17449276000, true, false, -1, false
36 Orkney Rd APT 3, 36 Orkney Rd APT 3, 02135, Brighton, MA, 42.33672, -71.149765, 4400, FOR_RENT, APARTMENT, 59095047, 9999, 4, 2, Apt 3, 9, 6, 19101785000, true, false, -1, false
70 Langley Rd #1, 70 Langley Rd #1, 02135, Brighton, MA, 42.349422, -71.165085, 5700, FOR_RENT, APARTMENT, 340656348, 9999, 4, 3, # 1, 9, 6, 20916300000, true, false, -1, false
12 Cummings Rd #2, 12 Cummings Rd #2, 02135, Brighton, MA, 42.34019, -71.14347, 5000, FOR_RENT, APARTMENT, 2107935091, 9999, 5, 2, # 2, 1, 4, 10553735000, true, false, -1, false
1561 Commonwealth Ave #3, 1561 Commonwealth Ave #3, 02135, Brighton, MA, 42.344433, -71.14213, 2900, FOR_RENT, APARTMENT, 350457580, 9999, 2, 1, # 3, 3, 10, 13131803000, true, false, -1, false
14-18 Westford St #7R, 14-18 Westford St #7R, 02134, Allston, MA, 42.362244, -71.1348, 3100, FOR_RENT, APARTMENT, 348817241, 750, 2, 1, # 7R, 3, 5, 14951261000, true, false, -1, false
128 Parsons St #2, 128 Parsons St #2, 02135, Brighton, MA, 42.354424, -71.15557, 5500, FOR_RENT, APARTMENT, 2057621662, 9999, 5, 3, # 2, 2, 8, 15377163000, true, false, -1, false
108 Kenrick St #4, 108 Kenrick St #4, 02135, Brighton, MA, 42.346447, -71.16721, 5400, FOR_RENT, APARTMENT, 347887478, 9999, 4, 2, # 4, 1, 4, 16164699000, true, false, -1, false
57 Hobart St #1, 57 Hobart St #1, 02135, Brighton, MA, 42.35524, -71.15999, 3300, FOR_RENT, APARTMENT, 2098348131, 9999, 3, 1, # 1, 3, 6, 15917446000, true, false, -1, false
72 Hobart St #2, 72 Hobart St #2, 02135, Brighton, MA, 42.355057, -71.16087, 5300, FOR_RENT, APARTMENT, 2105711367, 9999, 5, 2, # 2, 2, 7, 13132956000, true, false, -1, false
122 Bennett St #1, 122 Bennett St #1, 02135, Brighton, MA, 42.351704, -71.159515, 3150, FOR_RENT, APARTMENT, 2105123403, 9999, 3, 1, # 1, 7, 8, 15377285000, true, false, -1, false
319 Summit Ave #1, 319 Summit Ave #1, 02135, Brighton, MA, 42.345306, -71.139854, 5500, FOR_RENT, APARTMENT, 2098442172, 9999, 5, 2, # 1, 6, 3, 11931670000, true, false, -1, false
