Street Address, Street Name, Zipcode, City, State, Latitude, Longitude, Price, Listing Type, Home Type, ZPID, Area, Bedrooms, Bathrooms, Unit, Floor, Block, Time on Zillow, Is Non-Owner Occupied, Is Zillow Owned, Days on Zillow, Is Showcase Listing
3 Parley Vale APT 2, 3 Parley Vale APT 2, 02130, Jamaica Plain, MA, 42.314888, -71.111984, 1075000, FOR_SALE, CONDO, 59132990, 1699, 3, 2, Apt 2, 6, 3, 413619000, true, false, -1, false
77 West St, 77 West St, 02136, Hyde Park, MA, 42.2598, -71.11894, 715000, FOR_SALE, SINGLE_FAMILY, 59126480, 2086, 4, 2, , 5, 2, 413619000, true, false, -1, false
16 Mosgrove Ave, 16 Mosgrove Ave, 02131, Roslindale, MA, 42.291996, -71.12314, 799900, FOR_SALE, SINGLE_FAMILY, 59144887, 1494, 4, 2, , 4, 8, 586419000, true, false, -1, false
50-56 Broadlawn Park APT 105, 50-56 Broadlawn Park APT 105, 02467, Chestnut Hill, MA, 42.302517, -71.164116, 489000, FOR_SALE, CONDO, 59154930, 1164, 2, 2, Apt 105, 6, 2, 932019000, true, false, -1, false
375 Baker St, 375 Baker St, 02132, West Roxbury, MA, 42.282684, -71.16898, 899000, FOR_SALE, SINGLE_FAMILY, 59158722, 1449, 3, 2, , 9, 7, 500019000, true, false, -1, false
168 Newton St APT 5, 168 Newton St APT 5, 02135, Brighton, MA, 42.355656, -71.168785, 589000, FOR_SALE, CONDO, 71505274, 1053, 3, 2, Apt 5, 3, 8, 932019000, true, false, -1, false
14 Clarendon St APT 402, 14 Clarendon St APT 402, 02116, Boston, MA, 42.344597, -71.07243, 1449000, FOR_SALE, CONDO, 59165079, 1074, 3, 2, Apt 402, 3, 3, 1018419000, true, false, -1, true
4 Gloucester St, 4 Gloucester St, 02115, Boston, MA, 42.3514, -71.08547, 19995000, FOR_SALE, SINGLE_FAMILY, 63711261, 9924, 7, 8, , 1, 1, 2055219000, true, false, -1, false
177 Cowper St, 177 Cowper St, 02128, East Boston, MA, 42.38197, -71.01343, 400000, FOR_SALE, SINGLE_FAMILY, 59120903, 1120, 3, 1, , 10, 10, 1018419000, true, false, -1, false
11 Chestnut St, 11 Chestnut St, 02108, Boston, MA, 42.357876, -71.06675, 9200000, FOR_SALE, SINGLE_FAMILY, 59174917, 6596, 4, 6, , 6, 3, 16829619000, true, false, -1, false
59 Lanark Rd APT 9, 59 Lanark Rd APT 9, 02135, Brighton, MA, 42.340054, -71.14646, 499000, FOR_SALE, CONDO, 59089684, 767, 2, 1, Apt 9, 3, 8, 413619000, true, false, -1, false
36 Mount Ida Rd #3, 36 Mount Ida Rd #3, 02122, Dorchester, MA, 42.305862, -71.06466, 354500, FOR_SALE, CONDO, 59102345, 1320, 3, 1, # 3, 4, 10, 586419000, true, false, -1, false
63 Gould St, 63 Gould St, 02132, West Roxbury, MA, 42.271088, -71.16767, 649900, FOR_SALE, SINGLE_FAMILY, 59159977, 1168, 2, 1, , 2, 5, 327219000, true, false, -1, false
18 Gloria Rd, 18 Gloria Rd, 02132, West Roxbury, MA, 42.28742, -71.14477, 899000, FOR_SALE, SINGLE_FAMILY, 59154301, 2216, 3, 2, , 2, 8, 413619000, true, false, -1, false
46 Perham St, 46 Perham St, 02132, West Roxbury, MA, 42.281574, -71.1629, 849900, FOR_SALE, SINGLE_FAMILY, 59158158, 1439, 4, 2, , 6, 10, 500019000, true, false, -1, false
59 Hemlock Rd, 59 Hemlock Rd, 02132, West Roxbury, MA, 42.270046, -71.17141, 600000, FOR_SALE, SINGLE_FAMILY, 59160487, 892, 2, 2, , 1, 9, 5770419000, true, false, -1, true
30-32 Goodrich Rd, 30-32 Goodrich Rd, 02130, Jamaica Plain, MA, 42.315983, -71.115906, 1695000, FOR_SALE, MULTI_FAMILY, 190013487, 4340, 6, 3, , 9, 2, 327219000, true, false, -1, false
21 Auburn St, 21 Auburn St, 02129, Charlestown, MA, 42.38093, -71.06919, 1640000, FOR_SALE, SINGLE_FAMILY, 59100273, 1683, 3, 2, , 1, 2, 1018419000, true, false, -1, false
5 Northdale Ter, 5 Northdale Ter, 02132, West Roxbury, MA, 42.268932, -71.16714, 765000, FOR_SALE, SINGLE_FAMILY, 59161589, 1785, 4, 2, , 4, 1, 413619000, true, false, -1, false
47 Harvard St #PS104, 47 Harvard St #PS104, 02129, Charlestown, MA, 42.37344, -71.06301, 175000, FOR_SALE, CONDO, 441824749, 153, 0, 0, # PS104, 5, 3, 413619000, true, false, -1, false
27 Ainsworth St, 27 Ainsworth St, 02131, Roslindale, MA, 42.288795, -71.140045, 1149000, FOR_SALE, MULTI_FAMILY, 59212997, 3420, 6, 3, , 9, 6, 413619000, true, false, -1, false
36 Lime St, 36 Lime St, 02108, Boston, MA, 42.35705, -71.07148, 17995000, FOR_SALE, SINGLE_FAMILY, 59172800, 5875, 5, 7, , 1, 6, 17348019000, true, false, -1, false
93 Beacon St, 93 Beacon St, 02108, Boston, MA, 42.355923, -71.07246, 19995000, FOR_SALE, SINGLE_FAMILY, 2106270534, 12470, 18, 14, , 9, 4, 2919219000, true, false, -1, false
60 Callender St, 60 Callender St, 02124, Dorchester, MA, 42.288685, -71.08108, 599900, FOR_SALE, SINGLE_FAMILY, 59116413, 1744, 5, 2, , 7, 4, 327219000, true, false, -1, false
31 Newton St, 31 Newton St, 02135, Brighton, MA, 42.356834, -71.16391, 750000, FOR_SALE, MULTI_FAMILY, 59094742, 2225, 4, 3, , 10, 2, 932019000, true, false, -1, false
761 Washington St #3, 761 Washington St #3, 02124, Dorchester Center, MA, 42.350212, -71.06348, 639900, FOR_SALE, CONDO, 2061942592, 1206, 3, 2, # 3, 6, 9, 7671219000, true, false, -1, false
44 Percival St, 44 Percival St, 02122, Dorchester, MA, 42.306488, -71.06348, 674900, FOR_SALE, SINGLE_FAMILY, 59108771, 1530, 3, 2, , 2, 9, 327219000, true, false, -1, false
428 E 8th St #1, 428 E 8th St #1, 02127, South Boston, MA, 42.33149, -71.04376, 779000, FOR_SALE, CONDO, 59148653, 1039, 2, 2, # 1, 7, 3, 500019000, true, false, -1, false
320 W 2nd St APT 206, 320 W 2nd St APT 206, 02127, Boston, MA, 42.339, -71.04733, 475000, FOR_SALE, CONDO, 2084111790, 429, 1, 1, Apt 206, 1, 3, 1623219000, true, false, -1, false
783 Washington St #1, 783 Washington St #1, 02124, Dorchester Center, MA, 42.349953, -71.06379, 685000, FOR_SALE, CONDO, 2119986232, 1500, 3, 2, # 1, 5, 4, 500019000, true, false, -1, false
358 Marlborough St, 358 Marlborough St, 02115, Boston, MA, 42.350643, -71.086205, 12500000, FOR_SALE, SINGLE_FAMILY, 2094983464, 5145, 5, 7, , 3, 3, 327219000, true, false, -1, false
131 Readville St, 131 Readville St, 02136, Hyde Park, MA, 42.240482, -71.13579, 699000, FOR_SALE, SINGLE_FAMILY, 59129184, 1720, 3, 2, , 1, 4, 586419000, true, false, -1, false
31 Homestead St #2, 31 Homestead St #2, 02121, Boston, MA, 42.313126, -71.0931, 337250, FOR_SALE, CONDO, 59101642, 1326, 2, 2, # 2, 5, 6, 3264819000, true, false, -1, false
4 Abbot St, 4 Abbot St, 02124, Dorchester Center, MA, 42.297714, -71.086426, 800000, FOR_SALE, MULTI_FAMILY, 2053396664, 3297, 6, 4, , 1, 2, 586419000, true, false, -1, false
8 Jess St, 8 Jess St, 02130, Boston, MA, 42.31524, -71.10341, 804900, FOR_SALE, SINGLE_FAMILY, 59133333, 1752, 3, 2, , 10, 3, 240819000, true, false, -1, false
335 Norfolk Ave, 335 Norfolk Ave, 02125, Dorchester, MA, 42.321777, -71.06638, 429000, FOR_SALE, SINGLE_FAMILY, 59104290, 1216, 3, 2, , 8, 10, 2055219000, true, false, -1, false
636 Beacon St APT 205, 636 Beacon St APT 205, 02215, Boston, MA, 42.34959, -71.09526, 529000, FOR_SALE, CONDO, 2101182075, 504, 1, 1, Apt 205, 4, 2, 500019000, true, false, -1, false
86 Mount Vernon St, 86 Mount Vernon St, 02108, Boston, MA, 42.357895, -71.068375, 9950000, FOR_SALE, SINGLE_FAMILY, 59212077, 4492, 5, 6, , 6, 7, 5424819000, true, false, -1, false
125 B St UNIT 2A, 125 B St UNIT 2A, 02127, South Boston, MA, 42.341278, -71.053085, 919000, FOR_SALE, CONDO, 82233316, 1067, 2, 2, Unit 2A, 7, 1, 413619000, true, false, -1, false
38 Pleasant St APT 2, 38 Pleasant St APT 2, 02125, Dorchester, MA, 42.31606, -71.05902, 670000, FOR_SALE, CONDO, 59101822, 1791, 3, 2, Apt 2, 3, 9, 240819000, true, false, -1, false
30 Monument Sq APT 202, 30 Monument Sq APT 202, 02129, Charlestown, MA, 42.37696, -71.06165, 1199000, FOR_SALE, CONDO, 59162885, 1274, 2, 1, Apt 202, 3, 3, 413619000, true, false, -1, false
25 Lennon Ct APT 28, 25 Lennon Ct APT 28, 02127, South Boston, MA, 42.333107, -71.02685, 529000, FOR_SALE, CONDO, 59149868, 714, 2, 1, Apt 28, 1, 2, 1018419000, true, false, -1, false
362 Silver St, 362 Silver St, 02127, South Boston, MA, 42.335083, -71.045395, 799000, FOR_SALE, SINGLE_FAMILY, 59151031, 1582, 4, 2, , 3, 9, 413619000, true, false, -1, false
92 Corey St #2, 92 Corey St #2, 02132, West Roxbury, MA, 42.287, -71.155975, 890000, FOR_SALE, CONDO, 441859226, 2430, 4, 2, # 2, 4, 10, 327219000, true, false, -1, false
40 Pinckney St, 40 Pinckney St, 02114, Boston, MA, 42.358784, -71.06678, 3900000, FOR_SALE, SINGLE_FAMILY, 59174457, 2676, 5, 5, , 9, 6, 240819000, true, false, -1, false
34-34 Grove Sq #4, 34-34 Grove Sq #4, 02114, Boston, MA, 42.36002, -71.06852, 499999, FOR_SALE, CONDO, 400807038, 375, 1, 1, # 4, 3, 10, 8276019000, true, false, -1, false
35 S Russell St, 35 S Russell St, 02114, Boston, MA, 42.36016, -71.0661, 2650000, FOR_SALE, SINGLE_FAMILY, 59169445, 2421, 4, 3, , 9, 4, 10004019000, true, false, -1, false
87 E Brookline St #3, 87 E Brookline St #3, 02118, Boston, MA, 42.33737, -71.07, 1095000, FOR_SALE, CONDO, 67094795, 1330, 3, 2, # 3, 1, 10, 327219000, true, false, -1, false
99 Tremont At Oak Sq #415, 99 Tremont At Oak Sq #415, 02135, Brighton, MA, 42.35711, -71.06174, 845000, FOR_SALE, CONDO, 439806999, 1149, 2, 2, # 415, 3, 7, 4474419000, true, false, -1, false
307 Hyde Park Ave #1, 307 Hyde Park Ave #1, 02130, Jamaica Plain, MA, 42.290924, -71.118324, 479000, FOR_SALE, CONDO, 90136059, 910, 2, 1, # 1, 6, 1, 327219000, true, false, -1, false
38 Allston St #PENTHOUSE, 38 Allston St #PENTHOUSE, 02129, Charlestown, MA, 42.380863, -71.06331, 929000, FOR_SALE, CONDO, 441788454, 939, 2, 2, # PENTHOUSE, 9, 6, 586419000, true, false, -1, false
4 Hagar St UNIT 1, 4 Hagar St UNIT 1, 02130, Jamaica Plain, MA, 42.31069, -71.11596, 900000, FOR_SALE, CONDO, 318226186, 1148, 3, 2, Unit 1, 10, 9, 327219000, true, false, -1, false
79 Butler St, 79 Butler St, 02124, Dorchester, MA, 42.27187, -71.062675, 999900, FOR_SALE, MULTI_FAMILY, 59118427, 2207, 5, 2, , 4, 6, 327219000, true, false, -1, false
85 Child St #2, 85 Child St #2, 02130, Jamaica Plain, MA, 42.306812, -71.111824, 599000, FOR_SALE, CONDO, 59162263, 863, 2, 1, # 2, 2, 5, 413619000, true, false, -1, false
18 Farquhar St, 18 Farquhar St, 02131, Roslindale, MA, 42.289165, -71.13568, 1320000, FOR_SALE, MULTI_FAMILY, 59142559, 2701, 4, 2, , 9, 1, 500019000, true, false, -1, false
765 E Broadway #1, 765 E Broadway #1, 02127, Boston, MA, 42.335426, -71.03465, 1069000, FOR_SALE, CONDO, 2063629346, 1608, 4, 3, # 1, 2, 2, 500019000, true, false, -1, false
425 S Huntington Ave APT 14, 425 S Huntington Ave APT 14, 02130, Jamaica Plain, MA, 42.320213, -71.112144, 469900, FOR_SALE, CONDO, 59132134, 820, 2, 1, Apt 14, 10, 3, 1018419000, true, false, -1, false
88 Saint Botolph St APT 5, 88 Saint Botolph St APT 5, 02116, Boston, MA, 42.34507, -71.080246, 1449000, FOR_SALE, CONDO, 59179267, 1210, 2, 2, Apt 5, 5, 1, 413619000, true, false, -1, false
32 Robinwood Ave APT 3, 32 Robinwood Ave APT 3, 02130, Jamaica Plain, MA, 42.316505, -71.11183, 690000, FOR_SALE, CONDO, 59131026, 1285, 2, 1, Apt 3, 4, 9, 413619000, true, false, -1, false
74 Dale St, 74 Dale St, 02119, Roxbury, MA, 42.321495, -71.08667, 800000, FOR_SALE, MULTI_FAMILY, 59188151, 2685, 6, 2, , 8, 4, 327219000, true, false, -1, false
34 Garden St #1, 34 Garden St #1, 02114, Boston, MA, 42.36024, -71.06682, 629000, FOR_SALE, CONDO, 63041730, 485, 1, 1, # 1, 4, 4, 845619000, true, false, -1, false
381 Beacon St, 381 Beacon St, 02116, Boston, MA, 42.351894, -71.08462, 6990000, FOR_SALE, SINGLE_FAMILY, 59169513, 5165, 5, 4, , 9, 8, 500019000, true, false, -1, false
1 Dunreath St #C, 1 Dunreath St #C, 02119, Boston, MA, 42.322636, -71.08161, 485000, FOR_SALE, TOWNHOUSE, 60112981, 1279, 3, 2, # C, 1, 2, 6375219000, true, false, -1, false
110 112th St #2, 110 112th St #2, 02109, Boston, MA, 42.361908, -71.05298, 712000, FOR_SALE, CONDO, 441868368, 908, 1, 1, # 2, 9, 1, 240819000, true, false, -1, false
200 Beech St, 200 Beech St, 02131, Boston, MA, 42.28192, -71.142296, 1379900, FOR_SALE, SINGLE_FAMILY, 59144237, 2500, 5, 3, , 10, 10, 500019000, true, false, -1, false
57 Broadlawn Park APT 21A, 57 Broadlawn Park APT 21A, 02467, Chestnut Hill, MA, 42.302647, -71.16534, 399000, FOR_SALE, CONDO, 59155146, 759, 1, 1, Apt 21A, 6, 3, 3869619000, true, false, -1, false
49-51 Callender St, 49-51 Callender St, 02124, Dorchester Center, MA, 42.289124, -71.08071, 689995, FOR_SALE, MULTI_FAMILY, 2056983061, 2250, 6, 2, , 8, 3, 154419000, true, false, -1, false
37 Msgr Patrick J Lydon Way, 37 Msgr Patrick J Lydon Way, 02124, Dorchester, MA, 42.28845, -71.061516, 999950, FOR_SALE, MULTI_FAMILY, 59113080, 3480, 9, 3, , 2, 5, 672819000, true, false, -1, false
4 Hill St, 4 Hill St, 02129, Charlestown, MA, 42.381256, -71.064415, 1750000, FOR_SALE, SINGLE_FAMILY, 59099715, 2484, 5, 3, , 8, 4, 932019000, true, false, -1, false
599 Tremont St APT 6, 599 Tremont St APT 6, 02118, Boston, MA, 42.343197, -71.07343, 699000, FOR_SALE, CONDO, 59211072, 643, 1, 1, Apt 6, 3, 10, 327219000, true, false, -1, false
6 Newbury St #501-502, 6 Newbury St #501-502, 02116, Boston, MA, 42.352352, -71.071625, 19250000, FOR_SALE, CONDO, 440974751, 5992, 5, 7, # 501-502, 8, 5, 1709619000, true, false, -1, false
330 Summit Ave UNIT 101, 330 Summit Ave UNIT 101, 02135, Brighton, MA, 42.34543, -71.14075, 599000, FOR_SALE, CONDO, 71505136, 1200, 2, 2, Unit 101, 10, 6, 327219000, true, false, -1, false
1515 Vfw Pkwy #30, 1515 Vfw Pkwy #30, 02132, West Roxbury, MA, 42.267612, -71.17258, 105000, FOR_SALE, MANUFACTURED, 438788126, 370, 1, 1, # 30, 4, 9, 5856819000, true, false, -1, false
14 Robey St UNIT 14, 14 Robey St UNIT 14, 02119, Roxbury, MA, 42.322575, -71.06809, 539000, FOR_SALE, TOWNHOUSE, 440588878, 1240, 3, 2, Unit 14, 5, 3, 759219000, true, false, -1, false
32 Castleton St, 32 Castleton St, 02130, Jamaica Plain, MA, 42.323235, -71.114685, 1650000, FOR_SALE, SINGLE_FAMILY, 59131400, 2353, 4, 3, , 4, 10, 2314419000, true, false, -1, false
29 Bourne St, 29 Bourne St, 02130, Jamaica Plain, MA, 42.292103, -71.11436, 849000, FOR_SALE, SINGLE_FAMILY, 59136229, 1678, 3, 1, , 5, 6, 3351219000, true, false, -1, false
529 Poplar St, 529 Poplar St, 02131, Roslindale, MA, 42.2722, -71.13178, 600000, FOR_SALE, SINGLE_FAMILY, 59146443, 1221, 3, 1, , 5, 3, 154419000, true, false, -1, false
108 Woodley Ave, 108 Woodley Ave, 02132, West Roxbury, MA, 42.262817, -71.150185, 835000, FOR_SALE, SINGLE_FAMILY, 59161096, 2200, 5, 2, , 6, 7, 413619000, true, false, -1, false
158 Street North End #6, 158 Street North End #6, 02109, Boston, MA, 42.362568, -71.05232, 1350000, FOR_SALE, CONDO, 2056032233, 1354, 3, 2, # 6, 3, 2, 932019000, true, false, -1, false
244 Beacon St APT 1B, 244 Beacon St APT 1B, 02116, Boston, MA, 42.35375, -71.0797, 1379000, FOR_SALE, CONDO, 59212756, 1175, 3, 2, Apt 1B, 7, 10, 240819000, true, false, -1, false
71 W Cedar St #4, 71 W Cedar St #4, 02114, Boston, MA, 42.36002, -71.06995, 1450000, FOR_SALE, CONDO, 441866085, 1264, 2, 2, # 4, 3, 1, 240819000, true, false, -1, false
12 Stoneholm St APT 430, 12 Stoneholm St APT 430, 02115, Boston, MA, 42.34582, -71.08863, 479000, FOR_SALE, CONDO, 81857673, 400, 1, 1, Apt 430, 6, 2, 327219000, true, false, -1, false
425 Beacon St APT 1, 425 Beacon St APT 1, 02115, Boston, MA, 42.351368, -71.0865, 1725000, FOR_SALE, CONDO, 59167129, 1248, 3, 2, Apt 1, 8, 4, 500019000, true, false, -1, false
247 Beacon St APT 1, 247 Beacon St APT 1, 02116, Boston, MA, 42.35358, -71.0785, 679000, FOR_SALE, CONDO, 59166709, 860, 1, 2, Apt 1, 2, 9, 8362419000, true, false, -1, false
2855-2859 Washington St #8, 2855-2859 Washington St #8, 02119, Roxbury, MA, 42.3208, -71.09374, 569900, FOR_SALE, TOWNHOUSE, 67081276, 1562, 3, 3, # 8, 4, 7, 413619000, true, false, -1, false
165 Cornell St #2, 165 Cornell St #2, 02131, Roslindale, MA, 42.27865, -71.13391, 699000, FOR_SALE, CONDO, 2077253181, 2393, 4, 2, # 2, 10, 9, 327219000, true, false, -1, false
667 E 7th St #1, 667 E 7th St #1, 02127, South Boston, MA, 42.33214, -71.03368, 799000, FOR_SALE, CONDO, 87794231, 993, 2, 2, # 1, 7, 10, 413619000, true, false, -1, false
51 Malcolm, 51 Malcolm, 01230, Great Barrington, MA, 42.360085, -71.05888, 1200000, FOR_SALE, SINGLE_FAMILY, 441734352, 1616, 4, 3, , 2, 7, 932019000, true, false, -1, false
53 Chestnut St, 53 Chestnut St, 02108, Boston, MA, 42.357372, -71.06894, 5450000, FOR_SALE, SINGLE_FAMILY, 59174812, 4620, 5, 5, , 10, 5, 1364019000, true, false, -1, false
4-4R Melville Ave, 4-4R Melville Ave, 02124, Dorchester Center, MA, 42.294132, -71.07109, 789000, FOR_SALE, SINGLE_FAMILY, 440810796, 1250, 2, 2, , 1, 5, 2141619000, true, false, -1, false
5-7 Everett Ave #2, 5-7 Everett Ave #2, 02125, Dorchester, MA, 42.3159, -71.06307, 359900, FOR_SALE, CONDO, 352135269, 598, 2, 1, # 2, 8, 7, 11213619000, true, false, -1, false
2 W 6th St #302, 2 W 6th St #302, 02127, South Boston, MA, 42.339165, -71.0564, 750000, FOR_SALE, CONDO, 295324458, 1144, 2, 2, # 302, 4, 2, 3351219000, true, false, -1, false
66 Round Hill St, 66 Round Hill St, 02130, Jamaica Plain, MA, 42.32464, -71.107574, 749999, FOR_SALE, SINGLE_FAMILY, 59134056, 1728, 3, 1, , 2, 5, 1104819000, true, false, -1, false
350 W 2nd St #301, 350 W 2nd St #301, 02127, Boston, MA, 42.338604, -71.046486, 879000, FOR_SALE, CONDO, 441828562, 1467, 2, 2, # 301, 8, 3, 413619000, true, false, -1, false
23 Prescott St, 23 Prescott St, 02129, Charlestown, MA, 42.37296, -71.06374, 1800000, FOR_SALE, SINGLE_FAMILY, 59100019, 1702, 3, 3, , 5, 3, 1450419000, true, false, -1, false
104 Norfolk St, 104 Norfolk St, 02124, Dorchester, MA, 42.288284, -71.07588, 849900, FOR_SALE, SINGLE_FAMILY, 59110596, 3017, 6, 4, , 5, 3, 1536819000, true, false, -1, false
22 Lyndeboro St, 22 Lyndeboro St, 02129, Charlestown, MA, 42.379765, -71.070366, 1099000, FOR_SALE, SINGLE_FAMILY, 59100198, 1400, 3, 3, , 3, 9, 2228019000, true, false, -1, false
143-171 Hyde Park Ave UNIT 155A, 143-171 Hyde Park Ave UNIT 155A, 02130, Jamaica Plain, MA, 42.29589, -71.11672, 875000, FOR_SALE, TOWNHOUSE, 318227135, 1659, 3, 3, Unit 155A, 1, 1, 500019000, true, false, -1, false
1531 River St #1531, 1531 River St #1531, 02136, Hyde Park, MA, 42.24971, -71.13115, 649999, FOR_SALE, TOWNHOUSE, 2077607198, 1358, 3, 2, # 1531, 10, 8, 586419000, true, false, -1, false
728 E 8th St #2, 728 E 8th St #2, 02127, South Boston, MA, 42.331654, -71.03236, 545000, FOR_SALE, CONDO, 59163070, 604, 2, 1, # 2, 5, 9, 154419000, true, false, -1, false
53 Lexington St #3, 53 Lexington St #3, 02128, Boston, MA, 42.37747, -71.03781, 559000, FOR_SALE, CONDO, 333605285, 742, 2, 2, # 3, 3, 3, 327219000, true, false, -1, false
51 Hancock St APT 11, 51 Hancock St APT 11, 02114, Boston, MA, 42.35975, -71.06454, 600000, FOR_SALE, CONDO, 59163157, 437, 1, 1, Apt 11, 7, 1, 14237619000, true, false, -1, false
290 Columbus Ave UNIT 3, 290 Columbus Ave UNIT 3, 02116, Boston, MA, 42.346672, -71.0738, 499000, FOR_SALE, CONDO, 71546531, 316, 1, 1, Unit 3, 7, 7, 240819000, true, false, -1, false
43 Commercial Wharf APT 8, 43 Commercial Wharf APT 8, 02110, Boston, MA, 42.36217, -71.050186, 2295000, FOR_SALE, CONDO, 59174557, 1700, 2, 2, Apt 8, 4, 4, 5338419000, true, false, -1, false
39 Navarre St, 39 Navarre St, 02131, Roslindale, MA, 42.27716, -71.11766, 699000, FOR_SALE, SINGLE_FAMILY, 59144656, 1870, 3, 1, , 8, 5, 1018419000, true, false, -1, false
25 Crandall St, 25 Crandall St, 02131, Roslindale, MA, 42.280964, -71.12727, 849000, FOR_SALE, MULTI_FAMILY, 59144183, 2308, 6, 2, , 1, 1, 1191219000, true, false, -1, false
330 Beacon St #72, 330 Beacon St #72, 02116, Boston, MA, 42.35267, -71.083435, 2000000, FOR_SALE, CONDO, 441825566, 1196, 2, 2, # 72, 4, 1, 413619000, true, false, -1, false
714-718 Truman Hwy, 714-718 Truman Hwy, 02136, Hyde Park, MA, 42.251644, -71.119255, 959900, FOR_SALE, MULTI_FAMILY, 441888213, 2572, 6, 3, , 9, 8, 154419000, true, false, -1, false
286 Cambridge St APT 3, 286 Cambridge St APT 3, 02114, Boston, MA, 42.360973, -71.068146, 480000, FOR_SALE, CONDO, 2100637791, 435, 1, 1, Apt 3, 10, 2, 845619000, true, false, -1, false
328 W 3rd St #1, 328 W 3rd St #1, 02127, Boston, MA, 42.336792, -71.04525, 915000, FOR_SALE, CONDO, 339517505, 902, 2, 2, # 1, 5, 7, 413619000, true, false, -1, false
352 Blue Hill Ave UNIT 8, 352 Blue Hill Ave UNIT 8, 02121, Boston, MA, 42.31246, -71.08014, 464900, FOR_SALE, CONDO, 189975962, 1203, 4, 2, Unit 8, 5, 6, 2832819000, true, false, -1, false
19-21 Royal St #2, 19-21 Royal St #2, 02134, Allston, MA, 42.357597, -71.12971, 400000, FOR_SALE, CONDO, 2063017054, 537, 1, 1, # 2, 1, 10, 2919219000, true, false, -1, false
2 Chestnut Pl, 2 Chestnut Pl, 02135, Brighton, MA, 42.346626, -71.15147, 1400000, FOR_SALE, MULTI_FAMILY, 2081668240, 2550, 6, 6, , 8, 4, 327219000, true, false, -1, false
190 Orient Ave, 190 Orient Ave, 02128, East Boston, MA, 42.39069, -71.00784, 1249000, FOR_SALE, SINGLE_FAMILY, 59120481, 2923, 3, 2, , 2, 5, 240819000, true, false, -1, false
331 Bunker Hill St, 331 Bunker Hill St, 02129, Charlestown, MA, 42.381866, -71.06749, 2150000, FOR_SALE, SINGLE_FAMILY, 59099560, 3588, 4, 5, , 7, 8, 240819000, true, false, -1, false
351 Dorchester St UNIT 1, 351 Dorchester St UNIT 1, 02127, South Boston, MA, 42.330822, -71.055176, 415000, FOR_SALE, CONDO, 71489543, 620, 1, 1, Unit 1, 3, 1, 2141619000, true, false, -1, false
30 Concord Sq #1, 30 Concord Sq #1, 02118, Boston, MA, 42.341377, -71.0792, 4395000, FOR_SALE, CONDO, 441874257, 2497, 3, 4, # 1, 8, 6, 240819000, true, false, -1, false
338 Marlborough St APT 3, 338 Marlborough St APT 3, 02115, Boston, MA, 42.350826, -71.08546, 1195000, FOR_SALE, CONDO, 59167172, 836, 2, 2, Apt 3, 8, 4, 1018419000, true, false, -1, false
431 Dudley St, 431 Dudley St, 02119, Roxbury, MA, 42.32458, -71.07488, 895000, FOR_SALE, SINGLE_FAMILY, 59187465, 2300, 4, 3, , 4, 1, 2746419000, true, false, -1, false
76 Marine Rd #2, 76 Marine Rd #2, 02127, South Boston, MA, 42.33078, -71.03633, 789999, FOR_SALE, CONDO, 59188388, 1271, 3, 1, # 2, 10, 3, 240819000, true, false, -1, false
22 Gould St, 22 Gould St, 02132, Boston, MA, 42.27226, -71.16966, 1120000, FOR_SALE, SINGLE_FAMILY, 123848942, 2408, 4, 4, , 2, 3, 327219000, true, false, -1, false
175 Clare Ave APT A8, 175 Clare Ave APT A8, 02136, Boston, MA, 42.271984, -71.11937, 329000, FOR_SALE, CONDO, 59129928, 825, 2, 1, Apt A8, 6, 3, 3264819000, true, false, -1, false
361 Faneuil St APT 4, 361 Faneuil St APT 4, 02135, Brighton, MA, 42.352074, -71.16551, 325999, FOR_SALE, CONDO, 59090364, 755, 2, 1, Apt 4, 6, 7, 6980019000, true, false, -1, false
98 Prescott St #1, 98 Prescott St #1, 02128, Boston, MA, 42.377983, -71.02863, 500000, FOR_SALE, CONDO, 441883652, 600, 1, 1, # 1, 9, 1, 154419000, true, false, -1, false
37 Monument Sq #2, 37 Monument Sq #2, 02129, Boston, MA, 42.375782, -71.06189, 2999000, FOR_SALE, TOWNHOUSE, 90136297, 3356, 5, 3, # 2, 9, 5, 9226419000, true, false, -1, false
15 Commonwealth Ct APT 14, 15 Commonwealth Ct APT 14, 02135, Brighton, MA, 42.345802, -71.13956, 450000, FOR_SALE, CONDO, 59091660, 688, 1, 1, Apt 14, 5, 7, 500019000, true, false, -1, false
30 Harvard St, 30 Harvard St, 02129, Boston, MA, 42.372597, -71.063324, 1575000, FOR_SALE, MULTI_FAMILY, 59099997, 2520, 2, 2, , 10, 9, 413619000, true, false, -1, false
743 E 4th St APT 203, 743 E 4th St APT 203, 02127, Boston, MA, 42.334595, -71.03468, 749000, FOR_SALE, CONDO, 2094997364, 881, 2, 1, Apt 203, 10, 5, 413619000, true, false, -1, false
155 Warren Ave, 155 Warren Ave, 02116, Boston, MA, 42.344196, -71.075554, 6999000, FOR_SALE, SINGLE_FAMILY, 59165129, 3555, 3, 4, , 1, 4, 1709619000, true, false, -1, false
4 Goldfinch Ct, 4 Goldfinch Ct, 02126, Mattapan, MA, 42.28729, -71.09717, 517000, FOR_SALE, TOWNHOUSE, 441820149, 1025, 2, 2, , 3, 4, 413619000, true, false, -1, false
512 Massachusetts Ave APT 5, 512 Massachusetts Ave APT 5, 02118, Boston, MA, 42.339188, -71.07993, 739000, FOR_SALE, CONDO, 59184363, 732, 2, 1, Apt 5, 8, 8, 1709619000, true, false, -1, false
8-10 Newcastle Rd, 8-10 Newcastle Rd, 02135, Brighton, MA, 42.353508, -71.15983, 1495000, FOR_SALE, MULTI_FAMILY, 189926318, 3736, 8, 3, , 7, 9, 413619000, true, false, -1, false
364 Marlborough St APT 6, 364 Marlborough St APT 6, 02115, Boston, MA, 42.350384, -71.086685, 645000, FOR_SALE, CONDO, 59167301, 434, 1, 1, Apt 6, 8, 5, 11818419000, true, false, -1, false
105 Marlborough St #1, 105 Marlborough St #1, 02116, Boston, MA, 42.35354, -71.077034, 3990000, FOR_SALE, CONDO, 59171168, 2650, 4, 4, # 1, 8, 5, 2400819000, true, false, -1, false
24 Washington St, 24 Washington St, 02108, Boston, MA, 42.372734, -71.06444, 350000, FOR_SALE, LOT, 441825106, undefined, undefined, 0, , 2, 4, 413619000, true, false, -1, false
616 E 4th St UNIT 205, 616 E 4th St UNIT 205, 02127, South Boston, MA, 42.33491, -71.040215, 899000, FOR_SALE, CONDO, 190072215, 847, 2, 2, Unit 205, 9, 3, 500019000, true, false, -1, false
461 Arborway APT 2, 461 Arborway APT 2, 02130, Boston, MA, 42.30116, -71.10907, 404900, FOR_SALE, CONDO, 59131474, 730, 2, 1, Apt 2, 6, 5, 413619000, true, false, -1, false
148 Lexington St FLOOR 1, 148 Lexington St FLOOR 1, 02128, Boston, MA, 42.378975, -71.03452, 674900, FOR_SALE, CONDO, 441866054, 1146, 2, 2, Floor 1, 10, 10, 240819000, true, false, -1, false
742 Bennington St #PENTHOUSE, 742 Bennington St #PENTHOUSE, 02128, Boston, MA, 42.385437, -71.01117, 499900, FOR_SALE, CONDO, 440501422, 1092, 3, 1, # PENTHOUSE, 2, 6, 2919219000, true, false, -1, false
335 K St, 335 K St, 02127, South Boston, MA, 42.332176, -71.037506, 2699000, FOR_SALE, SINGLE_FAMILY, 59150964, 2762, 4, 4, , 8, 3, 413619000, true, false, -1, false
305 Cornell St, 305 Cornell St, 02131, Roslindale, MA, 42.28163, -71.138374, 700000, FOR_SALE, MULTI_FAMILY, 59143907, 1254, 2, 2, , 4, 5, 2055219000, true, false, -1, false
80 Paul Gore St #3, 80 Paul Gore St #3, 02130, Jamaica Plain, MA, 42.319515, -71.107506, 599000, FOR_SALE, CONDO, 59162283, 1202, 2, 1, # 3, 5, 3, 2228019000, true, false, -1, false
20 Appleton St, 20 Appleton St, 02116, Boston, MA, 42.34594, -71.071236, 2600000, FOR_SALE, SINGLE_FAMILY, 59175857, 2680, 4, 3, , 3, 9, 3437619000, true, false, -1, false
108 Goodenough St, 108 Goodenough St, 02135, Brighton, MA, 42.35407, -71.153175, 1225000, FOR_SALE, SINGLE_FAMILY, 59092400, 3060, 5, 3, , 4, 2, 4042419000, true, false, -1, false
39-41 Mount Vernon St #V, 39-41 Mount Vernon St #V, 02114, Boston, MA, 42.358524, -71.06497, 7495000, FOR_SALE, CONDO, 2069697521, 2903, 3, 4, # V, 2, 8, 327219000, true, false, -1, false
39 Union Park, 39 Union Park, 02118, Boston, MA, 42.343224, -71.07166, 11500000, FOR_SALE, SINGLE_FAMILY, 239892270, 6830, 5, 8, , 8, 2, 6634419000, true, false, -1, false
170 Tremont St APT 702, 170 Tremont St APT 702, 02111, Boston, MA, 42.353455, -71.06414, 965000, FOR_SALE, CONDO, 59164772, 812, 2, 2, Apt 702, 3, 9, 500019000, true, false, -1, false
60 Seymour St #1, 60 Seymour St #1, 02131, Roslindale, MA, 42.279682, -71.121124, 589000, FOR_SALE, CONDO, 318227185, 1005, 3, 2, # 1, 1, 10, 586419000, true, false, -1, false
30 Perrin St, 30 Perrin St, 02119, Roxbury, MA, 42.322273, -71.07831, 1579000, FOR_SALE, SINGLE_FAMILY, 59185820, 5010, 6, 5, , 1, 3, 11472819000, true, false, -1, false
178 Brighton Ave APT 4, 178 Brighton Ave APT 4, 02134, Allston, MA, 42.352905, -71.13348, 625000, FOR_SALE, CONDO, 59215379, 1850, 4, 2, Apt 4, 9, 9, 1018419000, true, false, -1, false
17 Cazenove St APT 408, 17 Cazenove St APT 408, 02116, Boston, MA, 42.34721, -71.07298, 895000, FOR_SALE, CONDO, 59168837, 774, 1, 2, Apt 408, 9, 2, 2746419000, true, false, -1, false
57 Mount Vernon St UNIT 5, 57 Mount Vernon St UNIT 5, 02108, Boston, MA, 42.358574, -71.06601, 999000, FOR_SALE, CONDO, 59166299, 900, 2, 1, Unit 5, 10, 4, 3437619000, true, false, -1, false
642 Canterbury St #642, 642 Canterbury St #642, 02131, Boston, MA, 42.2867, -71.11002, 490000, FOR_SALE, TOWNHOUSE, 59141085, 1272, 2, 2, # 642, 1, 7, 15447219000, true, false, -1, false
25 Brinsley St FLOOR 2, 25 Brinsley St FLOOR 2, 02121, Dorchester, MA, 42.30552, -71.078384, 499900, FOR_SALE, CONDO, 353481048, 1220, 4, 2, Floor 2, 6, 7, 9831219000, true, false, -1, false
18 Chestnut St #PENTHOUSE, 18 Chestnut St #PENTHOUSE, 02108, Boston, MA, 42.35746, -71.0671, 1350000, FOR_SALE, CONDO, 439248187, 1350, 2, 2, # PENTHOUSE, 6, 10, 3437619000, true, false, -1, false
165 Commonwealth Ave #A, 165 Commonwealth Ave #A, 02116, Boston, MA, 42.352085, -71.07919, 3750000, FOR_SALE, CONDO, 59170861, 2653, 3, 3, # A, 6, 8, 2055219000, true, false, -1, false
43 Anderson St APT 1, 43 Anderson St APT 1, 02114, Boston, MA, 42.35978, -71.06788, 1475000, FOR_SALE, CONDO, 59173832, 1225, 3, 2, Apt 1, 9, 8, 4042419000, true, false, -1, false
268 Bremen St #2, 268 Bremen St #2, 02128, Boston, MA, 42.375256, -71.03171, 769900, FOR_SALE, CONDO, 441810421, 1184, 2, 2, # 2, 1, 10, 500019000, true, false, -1, false
55 Commercial Wharf APT 6, 55 Commercial Wharf APT 6, 02110, Boston, MA, 42.362007, -71.04963, 1695000, FOR_SALE, CONDO, 59174575, 1325, 2, 2, Apt 6, 5, 10, 8621619000, true, false, -1, false
11 Dartmouth St #1, 11 Dartmouth St #1, 02116, Boston, MA, 42.343338, -71.073875, 999900, FOR_SALE, CONDO, 118323765, 922, 2, 2, # 1, 4, 2, 5079219000, true, false, -1, false
723 E 4th St #3, 723 E 4th St #3, 02127, South Boston, MA, 42.334637, -71.035736, 719000, FOR_SALE, CONDO, 67095968, 749, 1, 1, # 3, 3, 7, 240819000, true, false, -1, false
46 N Bennet St APT 6, 46 N Bennet St APT 6, 02113, Boston, MA, 42.365654, -71.05496, 900000, FOR_SALE, CONDO, 2057773087, 1002, 2, 2, Apt 6, 8, 2, 4042419000, true, false, -1, false
46 Brook Farm Rd, 46 Brook Farm Rd, 02132, West Roxbury, MA, 42.293026, -71.16474, 749000, FOR_SALE, SINGLE_FAMILY, 59156325, 1354, 4, 1, , 3, 9, 3524019000, true, false, -1, false
21 Aberdeen St APT B, 21 Aberdeen St APT B, 02215, Boston, MA, 42.346004, -71.10387, 399000, FOR_SALE, CONDO, 59170026, 425, 1, 1, Apt B, 4, 7, 2746419000, true, false, -1, false
38 Rockview St #3, 38 Rockview St #3, 02130, Boston, MA, 42.315163, -71.1093, 948000, FOR_SALE, CONDO, 87793301, 1420, 3, 2, # 3, 7, 7, 2919219000, true, false, -1, false
68 Ferrin St, 68 Ferrin St, 02129, Charlestown, MA, 42.376747, -71.05835, 1095000, FOR_SALE, SINGLE_FAMILY, 59101207, 1738, 3, 3, , 7, 4, 2228019000, true, false, -1, false
229 Harrison Ave, 229 Harrison Ave, 02111, Boston, MA, 42.347622, -71.06294, 2088000, FOR_SALE, MULTI_FAMILY, 59181472, 2988, 6, 4, , 10, 6, 240819000, true, false, -1, false
67 Cottage St #2, 67 Cottage St #2, 02128, Boston, MA, 42.36732, -71.03542, 399000, FOR_SALE, CONDO, 333605425, 621, 1, 1, # 2, 6, 8, 2400819000, true, false, -1, false
165 W 6th St APT A, 165 W 6th St APT A, 02127, South Boston, MA, 42.336113, -71.05224, 599990, FOR_SALE, CONDO, 59147707, 890, 2, 1, Apt A, 3, 2, 3437619000, true, false, -1, false
16 Milford St, 16 Milford St, 02118, Boston, MA, 42.343952, -71.06982, 4150000, FOR_SALE, SINGLE_FAMILY, 59182052, 2937, 4, 3, , 4, 7, 845619000, true, false, -1, false
290 Commonwealth Ave APT 16, 290 Commonwealth Ave APT 16, 02115, Boston, MA, 42.349625, -71.08472, 425000, FOR_SALE, CONDO, 59177102, 175, 0, 1, Apt 16, 4, 6, 2660019000, true, false, -1, false
19 Bradshaw St, 19 Bradshaw St, 02121, Dorchester, MA, 42.298973, -71.08242, 799900, FOR_SALE, MULTI_FAMILY, 59111784, 2334, 5, 2, , 7, 10, 1450419000, true, false, -1, false
341 Beacon St APT 2F, 341 Beacon St APT 2F, 02116, Boston, MA, 42.35238, -71.08297, 1570000, FOR_SALE, TOWNHOUSE, 59167028, 1426, 2, 2, Apt 2F, 3, 3, 2746419000, true, false, -1, false
11 Park Dr APT 7, 11 Park Dr APT 7, 02215, Boston, MA, 42.34467, -71.09464, 399000, FOR_SALE, CONDO, 59179512, 340, 0, 1, Apt 7, 7, 2, 240819000, true, false, -1, false
84 Victoria Heights Rd #84, 84 Victoria Heights Rd #84, 02136, Hyde Park, MA, 42.271458, -71.112434, 434999, FOR_SALE, TOWNHOUSE, 440512813, 1793, 3, 3, # 84, 9, 10, 2919219000, true, false, -1, false
25 Worcester St #1, 25 Worcester St #1, 02118, Boston, MA, 42.33822, -71.07624, 1199500, FOR_SALE, TOWNHOUSE, 246886606, 1259, 2, 2, # 1, 10, 1, 2919219000, true, false, -1, false
113 Regent St #3, 113 Regent St #3, 02119, Roxbury, MA, 42.322906, -71.088135, 364900, FOR_SALE, CONDO, 81858963, 889, 3, 1, # 3, 9, 4, 3610419000, true, false, -1, false
677 E 7th St #1, 677 E 7th St #1, 02127, Boston, MA, 42.33222, -71.03313, 829000, FOR_SALE, CONDO, 441202154, 1074, 2, 3, # 1, 3, 9, 1450419000, true, false, -1, false
78 Harbor View St, 78 Harbor View St, 02125, Dorchester, MA, 42.31705, -71.05291, 939999, FOR_SALE, SINGLE_FAMILY, 59111022, 1836, 5, 4, , 9, 9, 5943219000, true, false, -1, false
59 Chellman St, 59 Chellman St, 02132, West Roxbury, MA, 42.291576, -71.16539, 1850000, FOR_SALE, SINGLE_FAMILY, 59156359, 3214, 4, 4, , 10, 10, 2832819000, true, false, -1, false
36 Winthrop St, 36 Winthrop St, 02129, Charlestown, MA, 42.37437, -71.06101, 3300000, FOR_SALE, SINGLE_FAMILY, 59101244, 3834, 6, 7, , 9, 8, 2228019000, true, false, -1, false
11 Robinwood Ave, 11 Robinwood Ave, 02130, Jamaica Plain, MA, 42.31666, -71.11295, 2399000, FOR_SALE, SINGLE_FAMILY, 59132958, 3390, 5, 4, , 1, 3, 3956019000, true, false, -1, false
331 Shawmut Ave #1, 331 Shawmut Ave #1, 02118, Boston, MA, 42.341892, -71.07139, 1850000, FOR_SALE, CONDO, 59182485, 1986, 3, 3, # 1, 3, 3, 2832819000, true, false, -1, false
79 Park St, 79 Park St, 02132, Boston, MA, 42.28529, -71.157036, 1099000, FOR_SALE, SINGLE_FAMILY, 59156433, 2642, 5, 4, , 9, 9, 14324019000, true, false, -1, false
24 Gayland St #3, 24 Gayland St #3, 02125, Boston, MA, 42.3201, -71.0757, 499900, FOR_SALE, CONDO, 71496748, 1250, 3, 1, # 3, 9, 5, 3351219000, true, false, -1, false
10 Waterloo St, 10 Waterloo St, 02136, Hyde Park, MA, 42.243523, -71.132996, 999999, FOR_SALE, SINGLE_FAMILY, 81898009, 4738, 4, 3, , 1, 5, 9658419000, true, false, -1, false
244 Brighton Ave APT 302, 244 Brighton Ave APT 302, 02134, Allston, MA, 42.353245, -71.13617, 649999, FOR_SALE, CONDO, 67094721, 855, 1, 1, Apt 302, 4, 4, 932019000, true, false, -1, false
129-129 Willow St #1, 129-129 Willow St #1, 02132, West Roxbury, MA, 42.290573, -71.15421, 625000, FOR_SALE, CONDO, 2063010653, 1468, 2, 1, # 1, 2, 8, 586419000, true, false, -1, false
106 Myrtle St APT 8, 106 Myrtle St APT 8, 02114, Boston, MA, 42.3592, -71.0683, 1050000, FOR_SALE, CONDO, 59173566, 782, 2, 1, Apt 8, 1, 8, 3264819000, true, false, -1, false
27 Clark St APT 4, 27 Clark St APT 4, 02109, Boston, MA, 42.365025, -71.05244, 599500, FOR_SALE, CONDO, 113389377, 604, 2, 1, Apt 4, 1, 7, 6288819000, true, false, -1, false
1166 Washington St #704-6, 1166 Washington St #704-6, 02118, Boston, MA, 42.34329, -71.06598, 5799000, FOR_SALE, CONDO, 71504923, 3827, 4, 3, # 704-6, 9, 5, 240819000, true, false, -1, false
69-1 Bradfield Ave, 69-1 Bradfield Ave, 02131, Roslindale, MA, 42.289932, -71.14022, 575000, FOR_SALE, CONDO, 441828003, 1092, 2, 1, , 8, 7, 413619000, true, false, -1, false
857 Beacon St APT 41, 857 Beacon St APT 41, 02215, Boston, MA, 42.34666, -71.103806, 819999, FOR_SALE, CONDO, 59212753, 934, 2, 1, Apt 41, 2, 1, 1536819000, true, false, -1, false
22 Belmont St, 22 Belmont St, 02129, Boston, MA, 42.381207, -71.06556, 1500000, FOR_SALE, SINGLE_FAMILY, 59099574, 1508, 3, 4, , 4, 9, 500019000, true, false, -1, false
31 Lorraine St #1, 31 Lorraine St #1, 02131, Roslindale, MA, 42.28404, -71.14504, 599999, FOR_SALE, CONDO, 239893952, 1119, 2, 2, # 1, 7, 9, 3005619000, true, false, -1, false
5 Newhill Pl #2, 5 Newhill Pl #2, 02127, South Boston, MA, 42.33605, -71.03592, 749900, FOR_SALE, TOWNHOUSE, 87793652, 975, 2, 2, # 2, 10, 3, 2919219000, true, false, -1, false
65 Auckland St #2, 65 Auckland St #2, 02125, Dorchester, MA, 42.312527, -71.05633, 699000, FOR_SALE, CONDO, 90141608, 1324, 2, 1, # 2, 10, 3, 413619000, true, false, -1, false
135 Marlborough St APT 2, 135 Marlborough St APT 2, 02116, Boston, MA, 42.353214, -71.078354, 629000, FOR_SALE, CONDO, 59171242, 653, 1, 1, Apt 2, 5, 3, 3610419000, true, false, -1, false
119 Marlborough St APT 6, 119 Marlborough St APT 6, 02116, Boston, MA, 42.353397, -71.07762, 749000, FOR_SALE, CONDO, 59171191, 580, 1, 1, Apt 6, 7, 9, 3437619000, true, false, -1, false
18-18R Polk St, 18-18R Polk St, 02129, Charlestown, MA, 42.379345, -71.061424, 1095000, FOR_SALE, SINGLE_FAMILY, 441747255, 1492, 4, 2, , 7, 8, 845619000, true, false, -1, false
191-193 Bunker Hill St #105, 191-193 Bunker Hill St #105, 02129, Charlestown, MA, 42.37903, -71.061554, 599000, FOR_SALE, CONDO, 440006888, 735, 2, 1, # 105, 9, 2, 3956019000, true, false, -1, false
64-66 Elmont St, 64-66 Elmont St, 02121, Dorchester, MA, 42.299614, -71.077934, 849900, FOR_SALE, MULTI_FAMILY, 189977382, 3022, 7, 2, , 9, 5, 5252019000, true, false, -1, false
144-144-144A Salem St, 144-144-144A Salem St, 02113, Boston, MA, 42.365566, -71.05548, 2850000, FOR_SALE, MULTI_FAMILY, 441834135, 4320, 9, 4, , 9, 5, 413619000, true, false, -1, false
39 Story St #2, 39 Story St #2, 02127, South Boston, MA, 42.33333, -71.04256, 639000, FOR_SALE, CONDO, 60112354, 615, 2, 1, # 2, 3, 9, 932019000, true, false, -1, false
93 Faywood Ave, 93 Faywood Ave, 02128, East Boston, MA, 42.39173, -71.00316, 1075000, FOR_SALE, MULTI_FAMILY, 59120324, 2754, 6, 2, , 2, 4, 500019000, true, false, -1, false
259-261 Emerson St, 259-261 Emerson St, 02127, Boston, MA, 42.334274, -71.03602, 1395000, FOR_SALE, MULTI_FAMILY, 441863868, 1946, 4, 2, , 2, 10, 327219000, true, false, -1, false
1810 Dorchester Ave APT 5, 1810 Dorchester Ave APT 5, 02124, Dorchester, MA, 42.288883, -71.06324, 325000, FOR_SALE, CONDO, 81854007, 510, 1, 1, Apt 5, 8, 1, 13460019000, true, false, -1, false
29-29 Temple Pl #35, 29-29 Temple Pl #35, 02111, Boston, MA, 42.355057, -71.062225, 30000000, FOR_SALE, MULTI_FAMILY, 440945933, 26600, 42, 32, # 35, 1, 7, 1796019000, true, false, -1, false
31 Plainfield St UNIT 2, 31 Plainfield St UNIT 2, 02130, Jamaica Plain, MA, 42.303474, -71.10728, 699000, FOR_SALE, CONDO, 295324942, 983, 2, 2, Unit 2, 7, 3, 586419000, true, false, -1, false
5 Lila Rd, 5 Lila Rd, 02130, Jamaica Plain, MA, 42.303288, -71.128716, 1095000, FOR_SALE, SINGLE_FAMILY, 59135796, 1922, 3, 2, , 7, 2, 2832819000, true, false, -1, false
20 Chestnut St #1, 20 Chestnut St #1, 02129, Boston, MA, 42.3741, -71.059006, 1099000, FOR_SALE, CONDO, 59099962, 1550, 2, 2, # 1, 10, 9, 1018419000, true, false, -1, false
42 & 0 Doncaster St, 42 & 0 Doncaster St, 02131, Roslindale, MA, 42.274193, -71.12631, 759000, FOR_SALE, SINGLE_FAMILY, 402290812, 1548, 4, 2, , 9, 9, 7671219000, true, false, -1, false
271 Dartmouth St APT 5C, 271 Dartmouth St APT 5C, 02116, Boston, MA, 42.35066, -71.077286, 795000, FOR_SALE, CONDO, 2102942485, 625, 1, 1, Apt 5C, 8, 3, 2746419000, true, false, -1, false
42 Saint Rose St, 42 Saint Rose St, 02130, Jamaica Plain, MA, 42.304317, -71.11652, 1150000, FOR_SALE, SINGLE_FAMILY, 59135447, 1997, 4, 2, , 3, 7, 2919219000, true, false, -1, false
163 Endicott St APT 3, 163 Endicott St APT 3, 02113, Boston, MA, 42.36562, -71.05725, 685000, FOR_SALE, CONDO, 71546192, 714, 2, 1, Apt 3, 10, 2, 3264819000, true, false, -1, false
26 Garden St, 26 Garden St, 02114, Boston, MA, 42.36055, -71.0668, 2499000, FOR_SALE, SINGLE_FAMILY, 59174234, 2352, 4, 4, , 2, 10, 3437619000, true, false, -1, false
336 Saratoga St APT 4, 336 Saratoga St APT 4, 02128, East Boston, MA, 42.378895, -71.03094, 649000, FOR_SALE, TOWNHOUSE, 87792071, 1545, 3, 3, Apt 4, 3, 5, 11300019000, true, false, -1, false
3 Bellflower St #3, 3 Bellflower St #3, 02125, Dorchester, MA, 42.324394, -71.05731, 879000, FOR_SALE, CONDO, 441844184, 1280, 2, 2, # 3, 1, 6, 327219000, true, false, -1, false
2 Powers Ct, 2 Powers Ct, 02109, Boston, MA, 42.365883, -71.05176, 2200000, FOR_SALE, MULTI_FAMILY, 441850689, 2655, 6, 4, , 3, 4, 327219000, true, false, -1, false
435 Marlborough St APT 2, 435 Marlborough St APT 2, 02115, Boston, MA, 42.349964, -71.08998, 950000, FOR_SALE, CONDO, 67709791, 760, 2, 2, Apt 2, 5, 1, 3437619000, true, false, -1, false
56 Winthrop St, 56 Winthrop St, 02129, Charlestown, MA, 42.37481, -71.060455, 1997000, FOR_SALE, SINGLE_FAMILY, 59101239, 1839, 4, 2, , 3, 5, 14410419000, true, false, -1, false
126 Marlborough St, 126 Marlborough St, 02116, Boston, MA, 42.35301, -71.07738, 11900000, FOR_SALE, SINGLE_FAMILY, 59171277, 4788, 4, 7, , 4, 9, 3869619000, true, false, -1, false
80 W Cedar St #1A, 80 W Cedar St #1A, 02114, Boston, MA, 42.360134, -71.07018, 828000, FOR_SALE, CONDO, 349465752, 1050, 3, 3, # 1A, 10, 5, 13632819000, true, false, -1, false
25 Westmoor Rd, 25 Westmoor Rd, 02132, West Roxbury, MA, 42.263626, -71.15147, 799999, FOR_SALE, SINGLE_FAMILY, 59160260, 1726, 4, 2, , 8, 3, 3005619000, true, false, -1, false
51 Bennington St UNIT 1, 51 Bennington St UNIT 1, 02128, East Boston, MA, 42.375465, -71.03692, 389900, FOR_SALE, CONDO, 295324752, 948, 2, 1, Unit 1, 6, 1, 5511219000, true, false, -1, false
11 Taylor St, 11 Taylor St, 02118, Boston, MA, 42.343838, -71.06865, 4175000, FOR_SALE, SINGLE_FAMILY, 59181995, 2318, 3, 3, , 10, 4, 3437619000, true, false, -1, false
368 Main St APT 2, 368 Main St APT 2, 02129, Charlestown, MA, 42.37939, -71.06935, 575000, FOR_SALE, CONDO, 59098266, 640, 1, 1, Apt 2, 5, 10, 7844019000, true, false, -1, false
20 Monterey Ave, 20 Monterey Ave, 02126, Mattapan, MA, 42.27575, -71.098366, 555000, FOR_SALE, SINGLE_FAMILY, 59137933, 2316, 4, 2, , 10, 8, 11472819000, true, false, -1, false
129 Sutherland Rd, 129 Sutherland Rd, 02135, Brighton, MA, 42.34039, -71.14764, 1100000, FOR_SALE, SINGLE_FAMILY, 59093630, 1499, 5, 4, , 5, 9, 2228019000, true, false, -1, false
120 Child St #2, 120 Child St #2, 02130, Jamaica Plain, MA, 42.307217, -71.11071, 1595000, FOR_SALE, TOWNHOUSE, 318227092, 2115, 4, 3, # 2, 2, 8, 500019000, true, false, -1, false
296 Savin Hill Ave #2, 296 Savin Hill Ave #2, 02125, Dorchester, MA, 42.31201, -71.0473, 729000, FOR_SALE, CONDO, 81856345, 1112, 2, 2, # 2, 7, 8, 3351219000, true, false, -1, false
722 E 5th St #TOWNHOUSE, 722 E 5th St #TOWNHOUSE, 02127, Boston, MA, 42.334126, -71.0309, 1450000, FOR_SALE, TOWNHOUSE, 439644449, 1780, 3, 4, # TOWNHOUSE, 8, 10, 4733619000, true, false, -1, false
229 Beacon St APT 1, 229 Beacon St APT 1, 02116, Boston, MA, 42.35364, -71.07785, 710000, FOR_SALE, CONDO, 59171135, 724, 1, 1, Apt 1, 8, 7, 4647219000, true, false, -1, true
21 Holman St, 21 Holman St, 02134, Allston, MA, 42.358944, -71.129776, 1195000, FOR_SALE, MULTI_FAMILY, 59087326, 3175, 7, 3, , 7, 4, 6980019000, true, false, -1, false
51 Revere St APT 2, 51 Revere St APT 2, 02114, Boston, MA, 42.359608, -71.06829, 959000, FOR_SALE, CONDO, 59173803, 857, 1, 1, Apt 2, 9, 5, 1623219000, true, false, -1, false
1789 Center St #205, 1789 Center St #205, 02132, West Roxbury, MA, 42.28773, -71.152626, 799900, FOR_SALE, TOWNHOUSE, 441857248, 1295, 2, 2, # 205, 2, 7, 327219000, true, false, -1, false
60 Averton St, 60 Averton St, 02131, Roslindale, MA, 42.282204, -71.13688, 749900, FOR_SALE, SINGLE_FAMILY, 59144417, 1742, 3, 2, , 7, 3, 1104819000, true, false, -1, false
411 Marlborough St APT 7, 411 Marlborough St APT 7, 02115, Boston, MA, 42.35035, -71.08892, 849990, FOR_SALE, CONDO, 59169141, 875, 2, 1, Apt 7, 3, 4, 1364019000, true, false, -1, false
392 E 8th St #1, 392 E 8th St #1, 02127, South Boston, MA, 42.331394, -71.045364, 495000, FOR_SALE, CONDO, 71333555, 449, 1, 1, # 1, 2, 8, 4128819000, true, false, -1, false
44 Chickatawbut St #2, 44 Chickatawbut St #2, 02122, Dorchester, MA, 42.28585, -71.04822, 725000, FOR_SALE, CONDO, 2067316038, 1190, 3, 2, # 2, 9, 2, 845619000, true, false, -1, false
208 H St, 208 H St, 02127, South Boston, MA, 42.330708, -71.0412, 1674900, FOR_SALE, SINGLE_FAMILY, 59151200, 2283, 3, 3, , 9, 3, 4042419000, true, false, -1, false
100 F St, 100 F St, 02127, South Boston, MA, 42.335835, -71.04913, 2699000, FOR_SALE, SINGLE_FAMILY, 59151401, 2928, 5, 4, , 4, 4, 413619000, true, false, -1, false
243 Neponset Valley Pkwy #243, 243 Neponset Valley Pkwy #243, 02136, Hyde Park, MA, 42.236217, -71.12887, 899000, FOR_SALE, TOWNHOUSE, 441154059, 2077, 4, 3, # 243, 6, 7, 1623219000, true, false, -1, false
127 School St, 127 School St, 02119, Boston, MA, 42.31572, -71.10038, 875000, FOR_SALE, MULTI_FAMILY, 59187597, 2094, 5, 3, , 3, 7, 6461619000, true, false, -1, false
1 Melbourne St APT 8, 1 Melbourne St APT 8, 02124, Dorchester, MA, 42.29155, -71.06627, 279000, FOR_SALE, CONDO, 59107937, 604, 2, 1, Apt 8, 4, 8, 1882419000, true, false, -1, false
465 Park Dr APT D, 465 Park Dr APT D, 02215, Boston, MA, 42.346287, -71.10449, 359000, FOR_SALE, CONDO, 59169949, 380, 0, 1, Apt D, 10, 3, 2141619000, true, false, -1, false
31 Pinckney St APT 1, 31 Pinckney St APT 1, 02114, Boston, MA, 42.35895, -71.066315, 1200000, FOR_SALE, CONDO, 59174019, 887, 2, 2, Apt 1, 5, 3, 1191219000, true, false, -1, false
1501 Commonwealth Ave #PENTHOUSE 2, 1501 Commonwealth Ave #PENTHOUSE 2, 02135, Brighton, MA, 42.34748, -71.14139, 999000, FOR_SALE, CONDO, 441727100, 1264, 2, 3, # Penthouse 2, 8, 3, 932019000, true, false, -1, false
34-34.5 Beacon St PENTHOUSE N, 34-34.5 Beacon St PENTHOUSE N, 02108, Boston, MA, 42.35738, -71.06527, 12000000, FOR_SALE, CONDO, 2063017763, 8068, 5, 8, Penthouse N, 9, 1, 82061619000, true, false, -1, false
325 Columbus Ave APT 2, 325 Columbus Ave APT 2, 02116, Boston, MA, 42.346275, -71.0751, 1499000, FOR_SALE, CONDO, 59170940, 1647, 3, 2, Apt 2, 6, 1, 1018419000, true, false, -1, false
8 Lindall Pl APT 1, 8 Lindall Pl APT 1, 02114, Boston, MA, 42.360706, -71.069565, 599000, FOR_SALE, CONDO, 59166538, 509, 1, 1, Apt 1, 7, 3, 2832819000, true, false, -1, false
314 Commonwealth Ave, 314 Commonwealth Ave, 02115, Boston, MA, 42.34926, -71.08606, 6999000, FOR_SALE, CONDO, 2105168791, 4758, 2, 3, , 5, 9, 32381619000, true, false, -1, false
87 Condor St #1, 87 Condor St #1, 02128, East Boston, MA, 42.38247, -71.03696, 439900, FOR_SALE, CONDO, 295324560, 695, 2, 1, # 1, 9, 3, 4560819000, true, false, -1, false
435 Main St #C, 435 Main St #C, 02129, Boston, MA, 42.381554, -71.07088, 829000, FOR_SALE, CONDO, 59100208, 1200, 2, 2, # C, 5, 6, 3351219000, true, false, -1, false
41 Goldfinch Ct, 41 Goldfinch Ct, 02126, Mattapan, MA, 42.287148, -71.09775, 620000, FOR_SALE, TOWNHOUSE, 441820148, 1270, 3, 2, , 6, 10, 413619000, true, false, -1, false
9 Walnut St, 9 Walnut St, 02108, Boston, MA, 42.357502, -71.06617, 9950000, FOR_SALE, SINGLE_FAMILY, 59174707, 6082, 5, 6, , 6, 4, 3610419000, true, false, -1, false
375 Shawmut Ave #1, 375 Shawmut Ave #1, 02118, Boston, MA, 42.341194, -71.072556, 2095000, FOR_SALE, TOWNHOUSE, 349933722, 1876, 3, 3, # 1, 3, 3, 3005619000, true, false, -1, false
8 Wiget St APT 1, 8 Wiget St APT 1, 02113, Boston, MA, 42.363907, -71.05598, 779900, FOR_SALE, CONDO, 59181283, 1122, 3, 2, Apt 1, 1, 8, 2487219000, true, false, -1, false
41 Pearl St #3, 41 Pearl St #3, 02125, Dorchester, MA, 42.315285, -71.05887, 699000, FOR_SALE, CONDO, 71496874, 1250, 3, 2, # 3, 1, 3, 327219000, true, false, -1, false
28-32 Atlantic Ave #415, 28-32 Atlantic Ave #415, 02110, Boston, MA, 42.363277, -71.05015, 1999999, FOR_SALE, CONDO, 59174288, 1668, 2, 2, # 415, 2, 4, 7584819000, true, false, -1, false
7 Franclaire Dr #7, 7 Franclaire Dr #7, 02132, West Roxbury, MA, 42.275074, -71.14932, 569900, FOR_SALE, TOWNHOUSE, 440973282, 1689, 3, 2, # 7, 10, 5, 1709619000, true, false, -1, false
27 Chestnut St, 27 Chestnut St, 02108, Boston, MA, 42.35765, -71.06761, 2899000, FOR_SALE, CONDO, 59174880, 2180, 3, 2, , 7, 10, 2055219000, true, false, -1, false
1415 Commonwealth Ave APT 203, 1415 Commonwealth Ave APT 203, 02135, Brighton, MA, 42.349304, -71.13908, 625000, FOR_SALE, CONDO, 59162656, 1007, 2, 2, Apt 203, 9, 3, 2228019000, true, false, -1, false
466 Park Dr #1, 466 Park Dr #1, 02215, Boston, MA, 42.34601, -71.10513, 2100000, FOR_SALE, CONDO, 318226836, 2147, 4, 3, # 1, 9, 3, 1191219000, true, false, -1, false
8 Lee Hill Rd, 8 Lee Hill Rd, 02131, Roslindale, MA, 42.288647, -71.126564, 949000, FOR_SALE, MULTI_FAMILY, 59142258, 2447, 4, 3, , 1, 8, 2228019000, true, false, -1, false
33 Brimmer St #A, 33 Brimmer St #A, 02108, Boston, MA, 42.357784, -71.07216, 2850000, FOR_SALE, CONDO, 59166669, 1940, 2, 3, # A, 6, 3, 20285619000, true, false, -1, false
48 Coffey St APT 10D, 48 Coffey St APT 10D, 02122, Boston, MA, 42.289284, -71.04893, 469000, FOR_SALE, CONDO, 81854502, 914, 2, 1, Apt 10D, 1, 7, 2141619000, true, false, -1, false
54 Birchwood St, 54 Birchwood St, 02132, West Roxbury, MA, 42.258198, -71.15714, 1099900, FOR_SALE, SINGLE_FAMILY, 59160864, 2946, 3, 3, , 7, 9, 932019000, true, false, -1, false
226 Beacon St, 226 Beacon St, 02116, Boston, MA, 42.35382, -71.078705, 9850000, FOR_SALE, SINGLE_FAMILY, 2095523071, 7653, 5, 8, , 4, 9, 23482419000, true, false, -1, false
90 South St APT 3, 90 South St APT 3, 02111, Boston, MA, 42.35127, -71.057175, 1224900, FOR_SALE, CONDO, 59181877, 1800, 2, 2, Apt 3, 9, 3, 3351219000, true, false, -1, false
443 Poplar St, 443 Poplar St, 02131, Roslindale, MA, 42.2753, -71.127174, 1025000, FOR_SALE, SINGLE_FAMILY, 59145461, 1978, 4, 3, , 1, 4, 3869619000, true, false, -1, false
85 Willow Ct UNIT 201, 85 Willow Ct UNIT 201, 02125, Boston, MA, 42.324844, -71.064156, 799000, FOR_SALE, CONDO, 333606436, 1385, 3, 2, Unit 201, 8, 5, 413619000, true, false, -1, false
59 Chestnut St, 59 Chestnut St, 02108, Boston, MA, 42.35719, -71.06963, 9950000, FOR_SALE, SINGLE_FAMILY, 59174777, 6442, 6, 7, , 8, 1, 19940019000, true, false, -1, false
22 Gaylord St #1, 22 Gaylord St #1, 02124, Dorchester Center, MA, 42.298237, -71.07401, 719900, FOR_SALE, CONDO, 441812746, 1505, 3, 3, # 1, 9, 9, 500019000, true, false, -1, false
21 Alveston Ter, 21 Alveston Ter, 02130, Jamaica Plain, MA, 42.31052, -71.11252, 3798500, FOR_SALE, SINGLE_FAMILY, 350100647, 4434, 5, 6, , 3, 8, 5338419000, true, false, -1, false
2400 Beacon St UNIT 211, 2400 Beacon St UNIT 211, 02467, Chestnut Hill, MA, 42.333652, -71.153114, 1125000, FOR_SALE, CONDO, 81853839, 1170, 2, 2, Unit 211, 3, 3, 413619000, true, false, -1, false
3500 Washington St, 3500 Washington St, 02130, Jamaica Plain, MA, 42.30613, -71.107605, 799000, FOR_SALE, SINGLE_FAMILY, 59134920, 1532, 3, 2, , 3, 5, 2919219000, true, false, -1, false
12 Elm St #2, 12 Elm St #2, 02122, Dorchester, MA, 42.300797, -71.05345, 649000, FOR_SALE, CONDO, 440983746, 1065, 3, 2, # 2, 4, 5, 1709619000, true, false, -1, false
44 W Eagle St #1, 44 W Eagle St #1, 02128, BOSTON, MA, 42.38152, -71.03791, 524900, FOR_SALE, CONDO, 123850393, 722, 2, 2, # 1, 2, 2, 12423219000, true, false, -1, false
232 Beacon St APT 1, 232 Beacon St APT 1, 02116, Boston, MA, 42.353954, -71.079, 449000, FOR_SALE, CONDO, 59171076, 335, 0, 1, Apt 1, 1, 9, 2141619000, true, false, -1, false
29 Park St, 29 Park St, 02132, Boston, MA, 42.28651, -71.15877, 1199900, FOR_SALE, SINGLE_FAMILY, 59156448, 3200, 6, 3, , 5, 5, 10695219000, true, false, -1, false
303 Columbus Ave UNIT 302, 303 Columbus Ave UNIT 302, 02116, Boston, MA, 42.34669, -71.074615, 2975000, FOR_SALE, CONDO, 2116406858, 2183, 3, 3, Unit 302, 8, 4, 327219000, true, false, -1, false
257 Northampton St UNIT 312, 257 Northampton St UNIT 312, 02118, Roxbury, MA, 42.339554, -71.08156, 670000, FOR_SALE, CONDO, 118324429, 819, 1, 1, Unit 312, 1, 4, 413619000, true, false, -1, false
3 Appleton St APT 403, 3 Appleton St APT 403, 02116, Boston, MA, 42.346695, -71.06977, 549000, FOR_SALE, CONDO, 59175712, 547, 1, 1, Apt 403, 4, 3, 2660019000, true, false, -1, false
47 Montebello Rd #2, 47 Montebello Rd #2, 02130, Jamaica Plain, MA, 42.31215, -71.10102, 635000, FOR_SALE, CONDO, 59210375, 1061, 2, 1, # 2, 10, 3, 500019000, true, false, -1, false
156 Porter St APT 211, 156 Porter St APT 211, 02128, East Boston, MA, 42.37199, -71.03372, 595000, FOR_SALE, CONDO, 71490166, 990, 1, 1, Apt 211, 7, 4, 1450419000, true, false, -1, false
712 E 5th St #2, 712 E 5th St #2, 02127, South Boston, MA, 42.334167, -71.03166, 799000, FOR_SALE, CONDO, 81856736, 1060, 2, 2, # 2, 6, 7, 2141619000, true, false, -1, false
411 Commonwealth Ave #1, 411 Commonwealth Ave #1, 02215, Boston, MA, 42.34948, -71.091095, 5950000, FOR_SALE, CONDO, 440752626, 4600, 4, 5, # 1, 2, 2, 2314419000, true, false, -1, false
135 Commonwealth Ave APT 3, 135 Commonwealth Ave APT 3, 02116, Boston, MA, 42.35238, -71.078026, 798000, FOR_SALE, CONDO, 59171301, 663, 1, 1, Apt 3, 1, 2, 2746419000, true, false, -1, false
269 Commonwealth Ave, 269 Commonwealth Ave, 02116, Boston, MA, 42.350716, -71.084305, 11900000, FOR_SALE, MULTI_FAMILY, 59169781, 8508, 8, 10, , 2, 10, 2919219000, true, false, -1, false
11 Burrell St #PENTHOUSE, 11 Burrell St #PENTHOUSE, 02119, Roxbury, MA, 42.322422, -71.07197, 649900, FOR_SALE, CONDO, 441843349, 1856, 3, 2, # PENTHOUSE, 1, 5, 327219000, true, false, -1, false
247 D St #8, 247 D St #8, 02127, Boston, MA, 42.338547, -71.05084, 2099000, FOR_SALE, CONDO, 440986670, 2771, 3, 4, # 8, 10, 9, 1709619000, true, false, -1, false
548 Massachusetts Ave #4, 548 Massachusetts Ave #4, 02118, Boston, MA, 42.338524, -71.0786, 720000, FOR_SALE, CONDO, 59184329, 782, 2, 1, # 4, 6, 4, 1709619000, true, false, -1, false
110 Lanark Rd APT 12, 110 Lanark Rd APT 12, 02135, Brighton, MA, 42.34058, -71.1485, 420000, FOR_SALE, CONDO, 59093210, 536, 1, 1, Apt 12, 5, 4, 2746419000, true, false, -1, false
21 Temple St APT G, 21 Temple St APT G, 02114, Boston, MA, 42.36065, -71.06373, 599000, FOR_SALE, TOWNHOUSE, 59180524, 605, 1, 1, Apt G, 5, 5, 1450419000, true, false, -1, false
57 Stratford St, 57 Stratford St, 02132, West Roxbury, MA, 42.28362, -71.151375, 1699000, FOR_SALE, SINGLE_FAMILY, 59156038, 3557, 6, 2, , 1, 2, 9831219000, true, false, -1, false
183 D St UNIT 4, 183 D St UNIT 4, 02127, South Boston, MA, 42.33701, -71.052666, 865000, FOR_SALE, CONDO, 318227332, 1037, 2, 2, Unit 4, 5, 8, 9053619000, true, false, -1, false
355 Congress St #2, 355 Congress St #2, 02210, Boston, MA, 42.35013, -71.04847, 4299000, FOR_SALE, CONDO, 90137476, 2845, 4, 4, # 2, 10, 4, 1277619000, true, false, -1, false
23 Margaret St APT 2, 23 Margaret St APT 2, 02113, Boston, MA, 42.366013, -71.05547, 799000, FOR_SALE, CONDO, 71546130, 866, 3, 1, Apt 2, 9, 7, 4733619000, true, false, -1, false
1216 Vfw Pkwy APT 40, 1216 Vfw Pkwy APT 40, 02132, West Roxbury, MA, 42.278454, -71.171265, 535000, FOR_SALE, CONDO, 59153535, 1030, 2, 2, Apt 40, 4, 7, 327219000, true, false, -1, false
67 Old Harbor St, 67 Old Harbor St, 02127, South Boston, MA, 42.33252, -71.04766, 2095000, FOR_SALE, MULTI_FAMILY, 59151665, 3780, 8, 3, , 1, 5, 327219000, true, false, -1, false
20 Beacon St, 20 Beacon St, 02467, Newton, MA, 42.331516, -71.15847, 2750000, FOR_SALE, SINGLE_FAMILY, 56316971, 4450, 6, 5, , 9, 5, 3351219000, true, false, -1, false
8 Bexley Rd, 8 Bexley Rd, 02131, Roslindale, MA, 42.28798, -71.12574, 665000, FOR_SALE, SINGLE_FAMILY, 59145572, 1337, 3, 1, , 5, 7, 6893619000, true, false, -1, false
89 Blue Hill Ave APT 1, 89 Blue Hill Ave APT 1, 02119, Roxbury, MA, 42.32222, -71.077324, 529000, FOR_SALE, CONDO, 239893029, 1246, 3, 2, Apt 1, 6, 7, 8794419000, true, false, -1, false
121 Warren Ave, 121 Warren Ave, 02116, Boston, MA, 42.344543, -71.07426, 4695000, FOR_SALE, SINGLE_FAMILY, 59168652, 3450, 4, 5, , 3, 6, 15015219000, true, false, -1, false
458 Beacon St APT 6, 458 Beacon St APT 6, 02115, Boston, MA, 42.351585, -71.087776, 1880000, FOR_SALE, TOWNHOUSE, 59169295, 1252, 2, 2, Apt 6, 10, 1, 1536819000, true, false, -1, false
68 Liverpool St #1, 68 Liverpool St #1, 02128, Boston, MA, 42.371838, -71.041405, 649800, FOR_SALE, CONDO, 440539686, 1025, 2, 2, # 1, 8, 6, 2832819000, true, false, -1, false
49 Grove St #PENTHOUSE, 49 Grove St #PENTHOUSE, 02114, Boston, MA, 42.35943, -71.06871, 2400000, FOR_SALE, CONDO, 402647244, 1327, 1, 2, # PENTHOUSE, 4, 7, 7239219000, true, false, -1, false
34 Moraine St, 34 Moraine St, 02130, Jamaica Plain, MA, 42.319637, -71.1136, 1800000, FOR_SALE, MULTI_FAMILY, 59132081, 4351, 8, 4, , 2, 1, 2919219000, true, false, -1, false
107 Barnes Ave, 107 Barnes Ave, 02128, East Boston, MA, 42.385445, -71.00137, 1099918, FOR_SALE, MULTI_FAMILY, 59120783, 3561, 5, 3, , 8, 8, 1191219000, true, false, -1, false
32 Cobden St #2, 32 Cobden St #2, 02119, Boston, MA, 42.317104, -71.09558, 574999, FOR_SALE, TOWNHOUSE, 87798118, 1823, 3, 4, # 2, 3, 8, 23828019000, true, false, -1, false
822 E 5th St, 822 E 5th St, 02127, South Boston, MA, 42.33423, -71.02763, 1679000, FOR_SALE, SINGLE_FAMILY, 59149404, 2233, 5, 2, , 6, 1, 2055219000, true, false, -1, false
172 Cowper St #2, 172 Cowper St #2, 02128, Boston, MA, 42.382095, -71.013756, 599000, FOR_SALE, CONDO, 441821469, 900, 2, 2, # 2, 1, 9, 413619000, true, false, -1, false
7 Wilcutt Rd #7, 7 Wilcutt Rd #7, 02121, Dorchester, MA, 42.303448, -71.07502, 699000, FOR_SALE, TOWNHOUSE, 2053126777, 1500, 3, 3, # 7, 4, 9, 9917619000, true, false, -1, false
54 Revere St, 54 Revere St, 02114, Boston, MA, 42.359467, -71.06837, 2870000, FOR_SALE, SINGLE_FAMILY, 59173613, 2172, 3, 2, , 6, 5, 18644019000, true, false, -1, false
33 Wachusett St #3, 33 Wachusett St #3, 02130, Jamaica Plain, MA, 42.296707, -71.11311, 599999, FOR_SALE, CONDO, 67095877, 1076, 2, 1, # 3, 3, 5, 2314419000, true, false, -1, false
49 Melcher St UNIT 205, 49 Melcher St UNIT 205, 02210, Boston, MA, 42.3494, -71.05018, 860000, FOR_SALE, CONDO, 339615891, 833, 1, 1, Unit 205, 9, 8, 932019000, true, false, -1, false
321 S Huntington Ave #B, 321 S Huntington Ave #B, 02130, Jamaica Plain, MA, 42.32428, -71.11258, 450000, FOR_SALE, CONDO, 59168369, 500, 1, 1, # B, 1, 6, 3610419000, true, false, -1, false
365 Marlborough St APT 2, 365 Marlborough St APT 2, 02115, Boston, MA, 42.35085, -71.087074, 1225000, FOR_SALE, CONDO, 59169065, 941, 2, 2, Apt 2, 10, 7, 3869619000, true, false, -1, false
273 Border St #PENTHOUSE 3, 273 Border St #PENTHOUSE 3, 02128, Boston, MA, 42.37724, -71.039665, 670000, FOR_SALE, CONDO, 402067452, 1028, 2, 2, # Penthouse 3, 9, 6, 7844019000, true, false, -1, false
10 Williams St APT 13, 10 Williams St APT 13, 02119, Roxbury, MA, 42.33205, -71.08215, 675000, FOR_SALE, CONDO, 63041844, 1308, 1, 1, Apt 13, 8, 2, 2919219000, true, false, -1, false
352 Marlborough St, 352 Marlborough St, 02115, Boston, MA, 42.35069, -71.08597, 9750000, FOR_SALE, SINGLE_FAMILY, 59169848, 4754, 4, 7, , 4, 10, 24864819000, true, false, -1, false
612 Columbus Ave APT B2, 612 Columbus Ave APT B2, 02118, Boston, MA, 42.33966, -71.0827, 575000, FOR_SALE, CONDO, 59184487, 848, 1, 1, Apt B2, 3, 5, 2919219000, true, false, -1, false
160 Mount Vernon St, 160 Mount Vernon St, 02108, Boston, MA, 42.35729, -71.07173, 9000000, FOR_SALE, SINGLE_FAMILY, 59172820, 4151, 5, 7, , 7, 10, 4042419000, true, false, -1, false
34 Chestnut Ave #101, 34 Chestnut Ave #101, 02130, Boston, MA, 42.321037, -71.10263, 765000, FOR_SALE, CONDO, 123849798, 1116, 2, 2, # 101, 1, 4, 2228019000, true, false, -1, false
49 Ledge Hill Rd, 49 Ledge Hill Rd, 02132, West Roxbury, MA, 42.272373, -71.168625, 1499000, FOR_SALE, SINGLE_FAMILY, 351070070, 2717, 4, 3, , 9, 10, 12509619000, true, false, -1, false
483 Beacon St APT 12A, 483 Beacon St APT 12A, 02115, Boston, MA, 42.350647, -71.0891, 499900, FOR_SALE, CONDO, 59169147, 355, 1, 1, Apt 12A, 10, 10, 8276019000, true, false, -1, false
198 W Springfield St #3, 198 W Springfield St #3, 02118, Boston, MA, 42.340088, -71.08036, 755000, FOR_SALE, CONDO, 59184297, 592, 1, 1, # 3, 2, 5, 1018419000, true, false, -1, false
8 Union Wharf UNIT 8, 8 Union Wharf UNIT 8, 02109, Boston, MA, 42.365257, -71.05124, 6499000, FOR_SALE, TOWNHOUSE, 439919670, 2303, 4, 3, Unit 8, 4, 2, 4128819000, true, false, -1, false
942-944 Dorchester Ave UNIT 30, 942-944 Dorchester Ave UNIT 30, 02125, Dorchester, MA, 42.318527, -71.056076, 584900, FOR_SALE, CONDO, 402159364, 904, 1, 1, Unit 30, 7, 2, 7671219000, true, false, -1, false
55 Greenwich St #3, 55 Greenwich St #3, 02120, Boston, MA, 42.3358, -71.08432, 459900, FOR_SALE, CONDO, 2102911543, 480, 1, 1, # 3, 2, 8, 1623219000, true, false, -1, false
40 Morris St APT 1, 40 Morris St APT 1, 02128, Boston, MA, 42.37582, -71.03299, 625000, FOR_SALE, CONDO, 339517285, 1219, 3, 2, Apt 1, 1, 5, 3437619000, true, false, -1, false
72-74 Chelsea St #9, 72-74 Chelsea St #9, 02128, Boston, MA, 42.371838, -71.036896, 499995, FOR_SALE, CONDO, 440312643, 708, 2, 1, # 9, 7, 4, 3264819000, true, false, -1, false
121 E Cottage St #7, 121 E Cottage St #7, 02125, Dorchester, MA, 42.32089, -71.064865, 699900, FOR_SALE, TOWNHOUSE, 90141589, 1764, 3, 2, # 7, 7, 5, 500019000, true, false, -1, false
21 Dorr St #B, 21 Dorr St #B, 02119, Boston, MA, 42.32718, -71.09162, 814999, FOR_SALE, TOWNHOUSE, 71496847, 1996, 3, 3, # B, 6, 1, 2919219000, true, false, -1, false
20 E Springfield St APT 3, 20 E Springfield St APT 3, 02118, Boston, MA, 42.336514, -71.07557, 699000, FOR_SALE, CONDO, 59183689, 813, 2, 1, Apt 3, 6, 9, 2141619000, true, false, -1, false
614 E 7th St, 614 E 7th St, 02127, South Boston, MA, 42.332443, -71.03581, 1099000, FOR_SALE, SINGLE_FAMILY, 59149135, 2234, 4, 3, , 6, 1, 1882419000, true, false, -1, false
682 Atlantic Ave #38L, 682 Atlantic Ave #38L, 02111, Boston, MA, 42.351295, -71.05498, 2965000, FOR_SALE, CONDO, 441845876, 1498, 2, 3, # 38L, 10, 9, 327219000, true, false, -1, false
273 Beacon St, 273 Beacon St, 02116, Boston, MA, 42.353157, -71.07998, 4600000, FOR_SALE, CONDO, 2141118404, 2500, 4, 3, , 6, 5, 2660019000, true, false, -1, true
342 Commercial St APT 6, 342 Commercial St APT 6, 02109, Boston, MA, 42.365623, -71.051315, 810000, FOR_SALE, CONDO, 59178658, 776, 2, 1, Apt 6, 1, 1, 1536819000, true, false, -1, false
30 Hewlett St, 30 Hewlett St, 02131, Roslindale, MA, 42.2898, -71.13517, 1349000, FOR_SALE, MULTI_FAMILY, 59142612, 3780, 6, 3, , 1, 1, 3956019000, true, false, -1, false
701 Adams St UNIT 10, 701 Adams St UNIT 10, 02122, Dorchester, MA, 42.285492, -71.055466, 369900, FOR_SALE, CONDO, 59117065, 628, 2, 1, Unit 10, 10, 10, 1536819000, true, false, -1, false
111 Jersey St APT 23D, 111 Jersey St APT 23D, 02215, Boston, MA, 42.34299, -71.09728, 389000, FOR_SALE, CONDO, 59179878, 310, 0, 1, Apt 23D, 7, 8, 1018419000, true, false, -1, false
11 Wellington St, 11 Wellington St, 02118, Boston, MA, 42.34165, -71.08161, 4595000, FOR_SALE, SINGLE_FAMILY, 59212653, 4269, 4, 4, , 9, 3, 12509619000, true, false, -1, false
17 Melrose St #3, 17 Melrose St #3, 02116, Boston, MA, 42.34919, -71.06772, 1030000, FOR_SALE, CONDO, 90136685, 1148, 2, 2, # 3, 8, 4, 4042419000, true, false, -1, false
520 Shawmut Ave #1, 520 Shawmut Ave #1, 02118, Boston, MA, 42.33755, -71.07742, 649900, FOR_SALE, CONDO, 71505279, 800, 2, 1, # 1, 1, 4, 4042419000, true, false, -1, false
431 Marlborough St, 431 Marlborough St, 02115, Boston, MA, 42.350048, -71.0898, 4499000, FOR_SALE, TOWNHOUSE, 59167694, 3077, 3, 3, , 2, 10, 1277619000, true, false, -1, false
84 Gordon St APT 204, 84 Gordon St APT 204, 02135, Brighton, MA, 42.34985, -71.13979, 640000, FOR_SALE, CONDO, 59162685, 994, 3, 2, Apt 204, 6, 10, 5165619000, true, false, -1, false
26 Newport St UNIT 2, 26 Newport St UNIT 2, 02125, Dorchester, MA, 42.3182, -71.053795, 899000, FOR_SALE, CONDO, 295324625, 1605, 3, 2, Unit 2, 8, 4, 413619000, true, false, -1, false
6 Whittier Pl APT 4M, 6 Whittier Pl APT 4M, 02114, Boston, MA, 42.365437, -71.0674, 675000, FOR_SALE, CONDO, 59163214, 1272, 2, 2, Apt 4M, 4, 7, 22618419000, true, false, -1, false
11 Wilkinson Park APT 1, 11 Wilkinson Park APT 1, 02122, Dorchester, MA, 42.30702, -71.06141, 479000, FOR_SALE, CONDO, 87797559, 958, 2, 1, Apt 1, 5, 3, 1277619000, true, false, -1, false
319 Commonwealth Ave APT 40, 319 Commonwealth Ave APT 40, 02115, Boston, MA, 42.34995, -71.086845, 1995000, FOR_SALE, CONDO, 59168900, 1438, 2, 2, Apt 40, 8, 1, 3437619000, true, false, -1, false
95 W Walnut Park #2, 95 W Walnut Park #2, 02119, Roxbury, MA, 42.31861, -71.1004, 849000, FOR_SALE, TOWNHOUSE, 2068537063, 1684, 3, 2, # 2, 8, 10, 5770419000, true, false, -1, false
71-71B Spring Park Ave, 71-71B Spring Park Ave, 02130, Jamaica Plain, MA, 42.316116, -71.10832, 789900, FOR_SALE, SINGLE_FAMILY, 440238972, 1145, 2, 2, , 3, 2, 3437619000, true, false, -1, false
62 Webster St UNIT 301, 62 Webster St UNIT 301, 02128, East Boston, MA, 42.36737, -71.03803, 669999, FOR_SALE, CONDO, 295324345, 945, 2, 2, Unit 301, 10, 5, 8794419000, true, false, -1, false
16 McBride St UNIT 2, 16 McBride St UNIT 2, 02130, Jamaica Plain, MA, 42.30613, -71.11414, 1299000, FOR_SALE, TOWNHOUSE, 318225434, 1823, 3, 3, Unit 2, 7, 7, 1018419000, true, false, -1, false
8 Victoria Heights Rd UNIT 8, 8 Victoria Heights Rd UNIT 8, 02136, Hyde Park, MA, 42.270126, -71.113106, 475000, FOR_SALE, TOWNHOUSE, 440666603, 1793, 2, 3, Unit 8, 4, 4, 2573619000, true, false, -1, false
23 Hodgdon Ter, 23 Hodgdon Ter, 02132, West Roxbury, MA, 42.289375, -71.15687, 919000, FOR_SALE, SINGLE_FAMILY, 59155617, 1760, 3, 3, , 7, 7, 4215219000, true, false, -1, false
1 Concord Sq #1, 1 Concord Sq #1, 02118, Boston, MA, 42.34101, -71.078156, 599000, FOR_SALE, CONDO, 2077109384, 560, 1, 1, # 1, 2, 3, 3524019000, true, false, -1, false
112 Pinckney St APT 35, 112 Pinckney St APT 35, 02114, Boston, MA, 42.358692, -71.07205, 1249000, FOR_SALE, CONDO, 59173095, 1120, 2, 1, Apt 35, 10, 10, 3437619000, true, false, -1, false
348 Marlborough St #3, 348 Marlborough St #3, 02115, Boston, MA, 42.35074, -71.0858, 1100000, FOR_SALE, CONDO, 59169856, 809, 2, 1, # 3, 9, 4, 2919219000, true, false, -1, false
15 Park Dr APT 16, 15 Park Dr APT 16, 02215, Boston, MA, 42.344433, -71.09529, 699900, FOR_SALE, CONDO, 59179556, 760, 1, 1, Apt 16, 2, 1, 2141619000, true, false, -1, false
197 8th St APT 425, 197 8th St APT 425, 02129, Charlestown, MA, 42.373966, -71.05173, 1325000, FOR_SALE, CONDO, 59213427, 1722, 1, 2, Apt 425, 8, 9, 413619000, true, false, -1, false
46 Montgomery St, 46 Montgomery St, 02116, Boston, MA, 42.343555, -71.07346, 4295000, FOR_SALE, SINGLE_FAMILY, 59168723, 3241, 4, 5, , 3, 3, 10436019000, true, false, -1, false
29 Fairfield St APT 1, 29 Fairfield St APT 1, 02116, Boston, MA, 42.35023, -71.08263, 1850000, FOR_SALE, CONDO, 2074310833, 1733, 2, 2, Apt 1, 3, 1, 3610419000, true, false, -1, false
24 Parker St #2, 24 Parker St #2, 02129, Charlestown, MA, 42.383026, -71.07891, 1193400, FOR_SALE, TOWNHOUSE, 2058071877, 1755, 4, 3, # 2, 9, 3, 7930419000, true, false, -1, false
715 E 7th St, 715 E 7th St, 02127, Boston, MA, 42.33223, -71.031624, 1499000, FOR_SALE, SINGLE_FAMILY, 2119227407, 1834, 3, 3, , 1, 1, 2055219000, true, false, -1, false
14 Upton St APT 5, 14 Upton St APT 5, 02118, Boston, MA, 42.341976, -71.07195, 869000, FOR_SALE, CONDO, 59183932, 692, 1, 1, Apt 5, 5, 6, 4042419000, true, false, -1, false
31 Massachusetts Ave APT 32, 31 Massachusetts Ave APT 32, 02115, Boston, MA, 42.350296, -71.0895, 799000, FOR_SALE, CONDO, 59178551, 739, 2, 1, Apt 32, 1, 7, 12596019000, true, false, -1, false
39 Glenville Ave APT 3, 39 Glenville Ave APT 3, 02134, Allston, MA, 42.350266, -71.1336, 315000, FOR_SALE, CONDO, 59088473, 346, 0, 1, Apt 3, 10, 1, 4647219000, true, false, -1, false
53 Brookside Ave, 53 Brookside Ave, 02130, Jamaica Plain, MA, 42.313107, -71.103836, 1250000, FOR_SALE, MULTI_FAMILY, 59133648, 2644, 6, 3, , 7, 6, 3264819000, true, false, -1, false
791 E 4th St, 791 E 4th St, 02127, South Boston, MA, 42.334633, -71.03198, 2149000, FOR_SALE, SINGLE_FAMILY, 59152217, 3348, 4, 4, , 1, 5, 9140019000, true, false, -1, false
20 Gaylord St #1, 20 Gaylord St #1, 02124, Dorchester Center, MA, 42.298225, -71.0739, 599900, FOR_SALE, CONDO, 440827754, 1200, 2, 2, # 1, 3, 4, 2141619000, true, false, -1, false
7 Parker St #1, 7 Parker St #1, 02129, Charlestown, MA, 42.383923, -71.07879, 950000, FOR_SALE, CONDO, 441146685, 1770, 2, 3, # 1, 6, 1, 1623219000, true, false, -1, false
104 Jamaica St #U2, 104 Jamaica St #U2, 02130, Jamaica Plain, MA, 42.305862, -71.116516, 974900, FOR_SALE, TOWNHOUSE, 440573662, 1237, 3, 3, # U2, 7, 8, 2746419000, true, false, -1, false
250 Commonwealth Ave APT 14, 250 Commonwealth Ave APT 14, 02116, Boston, MA, 42.35015, -71.08283, 2650000, FOR_SALE, CONDO, 59177218, 1879, 3, 3, Apt 14, 5, 9, 932019000, true, false, -1, false
4-4 Adams St #A, 4-4 Adams St #A, 02136, Hyde Park, MA, 42.252876, -71.12931, 1199000, FOR_SALE, SINGLE_FAMILY, 441205755, 3170, 4, 4, # A, 6, 7, 1450419000, true, false, -1, false
2420 Beacon St #PENTHOUSE 6, 2420 Beacon St #PENTHOUSE 6, 02467, Chestnut Hill, MA, 42.332912, -71.15356, 1800000, FOR_SALE, CONDO, 439271188, 1730, 2, 3, # Penthouse 6, 10, 3, 5252019000, true, false, -1, false
32 Rutland Sq APT 1, 32 Rutland Sq APT 1, 02118, Boston, MA, 42.34176, -71.0784, 2975000, FOR_SALE, TOWNHOUSE, 59183279, 2218, 3, 4, Apt 1, 8, 9, 2228019000, true, false, -1, false
73 School St #2, 73 School St #2, 02129, Charlestown, MA, 42.378666, -71.063446, 949000, FOR_SALE, CONDO, 63041210, 1185, 2, 2, # 2, 2, 8, 3437619000, true, false, -1, false
42 8th St APT 1405, 42 8th St APT 1405, 02129, Charlestown, MA, 42.37511, -71.05288, 674999, FOR_SALE, CONDO, 67095818, 919, 2, 2, Apt 1405, 7, 9, 7239219000, true, false, -1, false
125 Park Dr APT 42, 125 Park Dr APT 42, 02215, Boston, MA, 42.3418, -71.09771, 400000, FOR_SALE, CONDO, 59168159, 375, 0, 1, Apt 42, 6, 8, 4647219000, true, false, -1, false
89 Chester St #A3, 89 Chester St #A3, 02134, Allston, MA, 42.353912, -71.127884, 389750, FOR_SALE, CONDO, 2112157389, 465, 0, 1, # A3, 9, 8, 1796019000, true, false, -1, false
111 Beach St UNIT 2H, 111 Beach St UNIT 2H, 02111, Boston, MA, 42.35046, -71.058, 2695000, FOR_SALE, CONDO, 433238550, 4189, 4, 4, Unit 2H, 4, 5, 4820019000, true, false, -1, false
353 Marlborough St APT 3, 353 Marlborough St APT 3, 02115, Boston, MA, 42.35106, -71.086235, 1499000, FOR_SALE, TOWNHOUSE, 59167157, 1000, 2, 2, Apt 3, 4, 5, 4042419000, true, false, -1, false
111 Pembroke St #PENTHOUSE, 111 Pembroke St #PENTHOUSE, 02118, Boston, MA, 42.342632, -71.07667, 4300000, FOR_SALE, TOWNHOUSE, 440979022, 3798, 3, 3, # PENTHOUSE, 10, 5, 1709619000, true, false, -1, false
35 Rossmore Rd UNIT 1, 35 Rossmore Rd UNIT 1, 02130, Jamaica Plain, MA, 42.30469, -71.10723, 685000, FOR_SALE, CONDO, 318227086, 908, 2, 2, Unit 1, 10, 5, 4128819000, true, false, -1, false
32 Roseclair St #2, 32 Roseclair St #2, 02125, Dorchester, MA, 42.32094, -71.05974, 689000, FOR_SALE, CONDO, 113413548, 1200, 3, 2, # 2, 1, 9, 1536819000, true, false, -1, false
2 Putnam St UNIT 4, 2 Putnam St UNIT 4, 02128, Boston, MA, 42.38246, -71.033226, 749000, FOR_SALE, CONDO, 2058938311, 1128, 2, 2, Unit 4, 2, 1, 1623219000, true, false, -1, false
118 Marcella St #4, 118 Marcella St #4, 02119, Roxbury, MA, 42.3246, -71.0967, 799500, FOR_SALE, CONDO, 372161808, 1558, 3, 2, # 4, 5, 4, 9053619000, true, false, -1, false
1 Fairfield St, 1 Fairfield St, 02116, Boston, MA, 42.35192, -71.08353, 10950000, FOR_SALE, SINGLE_FAMILY, 59169543, 5700, 6, 6, , 3, 4, 31776819000, true, false, -1, false
717 E 5th St #717, 717 E 5th St #717, 02127, Boston, MA, 42.333874, -71.03109, 850000, FOR_SALE, CONDO, 348908848, 1219, 2, 3, # 717, 2, 1, 14928819000, true, false, -1, false
57 Mount Calvary Rd, 57 Mount Calvary Rd, 02131, Roslindale, MA, 42.279167, -71.11421, 619000, FOR_SALE, SINGLE_FAMILY, 59146902, 1142, 3, 3, , 9, 10, 3610419000, true, false, -1, false
8 Marcy Rd, 8 Marcy Rd, 02126, Mattapan, MA, 42.26718, -71.09643, 689900, FOR_SALE, SINGLE_FAMILY, 59139383, 1596, 6, 3, , 9, 1, 1623219000, true, false, -1, false
269 Webster St APT 4, 269 Webster St APT 4, 02128, East Boston, MA, 42.3645, -71.03114, 699900, FOR_SALE, CONDO, 59121180, 840, 2, 1, Apt 4, 2, 3, 1623219000, true, false, -1, false
61 Lawrence St, 61 Lawrence St, 02129, Charlestown, MA, 42.37628, -71.06647, 950000, FOR_SALE, SINGLE_FAMILY, 59100149, 1444, 4, 1, , 10, 8, 1450419000, true, false, -1, false
176 Minot St #2, 176 Minot St #2, 02122, Dorchester, MA, 42.283615, -71.05433, 599000, FOR_SALE, CONDO, 71496752, 1319, 3, 1, # 2, 9, 7, 3437619000, true, false, -1, false
15 Virgil Rd #15, 15 Virgil Rd #15, 02132, West Roxbury, MA, 42.28355, -71.16256, 569000, FOR_SALE, CONDO, 2069398822, 1030, 2, 1, # 15, 3, 1, 1536819000, true, false, -1, false
194 Glenellen Rd, 194 Glenellen Rd, 02132, West Roxbury, MA, 42.26397, -71.163826, 699999, FOR_SALE, SINGLE_FAMILY, 59160601, 1372, 3, 2, , 4, 4, 3956019000, true, false, -1, false
1306 Columbia Rd #5, 1306 Columbia Rd #5, 02127, Boston, MA, 42.33062, -71.047035, 839000, FOR_SALE, CONDO, 440784433, 1211, 2, 2, # 5, 4, 7, 2228019000, true, false, -1, false
75 G St #1, 75 G St #1, 02127, Boston, MA, 42.33345, -71.044334, 1599000, FOR_SALE, CONDO, 2126745684, 1975, 4, 3, # 1, 10, 6, 413619000, true, false, -1, false
69 Robeson St APT 4, 69 Robeson St APT 4, 02130, Boston, MA, 42.309574, -71.09882, 899000, FOR_SALE, CONDO, 339616424, 2145, 2, 2, Apt 4, 2, 10, 17866419000, true, false, -1, true
198 Allston St UNIT 6, 198 Allston St UNIT 6, 02135, Brighton, MA, 42.346725, -71.13856, 340000, FOR_SALE, CONDO, 59091344, 366, 1, 1, Unit 6, 1, 4, 7757619000, true, false, -1, false
51 Beacon St APT 4, 51 Beacon St APT 4, 02108, Boston, MA, 42.356667, -71.06783, 2900000, FOR_SALE, CONDO, 59174640, 1623, 2, 3, Apt 4, 9, 1, 4042419000, true, false, -1, false
122 Birch St, 122 Birch St, 02131, Roslindale, MA, 42.283882, -71.13321, 1199000, FOR_SALE, SINGLE_FAMILY, 353559418, 2227, 4, 3, , 2, 8, 9917619000, true, false, -1, false
22 Orkney Rd APT 45, 22 Orkney Rd APT 45, 02135, Brighton, MA, 42.33716, -71.14843, 429000, FOR_SALE, CONDO, 59094546, 610, 1, 1, Apt 45, 10, 7, 1796019000, true, false, -1, false
3 0 Middle St, 3 0 Middle St, 02127, Boston, MA, 42.330856, -71.05451, 1999000, FOR_SALE, SINGLE_FAMILY, 433113176, 3032, 5, 4, , 9, 9, 5943219000, true, false, -1, false
480 Shawmut Ave APT 5B, 480 Shawmut Ave APT 5B, 02118, Boston, MA, 42.338367, -71.07599, 749000, FOR_SALE, CONDO, 59184155, 735, 2, 1, Apt 5B, 3, 9, 1536819000, true, false, -1, false
11 Swan St, 11 Swan St, 02132, West Roxbury, MA, 42.273285, -71.14499, 845000, FOR_SALE, SINGLE_FAMILY, 59162149, 2118, 3, 3, , 10, 10, 6461619000, true, false, -1, false
135 Granite Ave APT 3, 135 Granite Ave APT 3, 02124, Dorchester, MA, 42.278927, -71.05456, 359999, FOR_SALE, CONDO, 59119086, 655, 1, 1, Apt 3, 5, 4, 1709619000, true, false, -1, false
41 Highland Park Ave, 41 Highland Park Ave, 02119, Roxbury, MA, 42.32605, -71.0945, 1190000, FOR_SALE, MULTI_FAMILY, 59185683, 2421, 6, 4, , 7, 9, 20804019000, true, false, -1, false
1408 Commonwealth Ave APT 17, 1408 Commonwealth Ave APT 17, 02135, Boston, MA, 42.348415, -71.13866, 499000, FOR_SALE, CONDO, 59091314, 855, 2, 1, Apt 17, 1, 2, 5943219000, true, false, -1, false
35 Circuit St #1, 35 Circuit St #1, 02119, Boston, MA, 42.323677, -71.08586, 389900, FOR_SALE, CONDO, 59185101, 598, 1, 1, # 1, 9, 4, 1709619000, true, false, -1, false
10 Charlesgate E APT 1, 10 Charlesgate E APT 1, 02215, Boston, MA, 42.3499, -71.09125, 829000, FOR_SALE, CONDO, 59167695, 1075, 2, 1, Apt 1, 4, 5, 4128819000, true, false, -1, false
169 Commonwealth Ave #4-F, 169 Commonwealth Ave #4-F, 02116, Boston, MA, 42.352013, -71.07938, 1100000, FOR_SALE, CONDO, 441388481, 1020, 1, 1, # 4-F, 9, 9, 1450419000, true, false, -1, false
10 Taber St #207, 10 Taber St #207, 02119, Boston, MA, 42.330288, -71.08269, 659500, FOR_SALE, CONDO, 339615653, 935, 2, 2, # 207, 6, 10, 5338419000, true, false, -1, false
6 Iona St #3, 6 Iona St #3, 02131, Roslindale, MA, 42.28556, -71.14509, 549000, FOR_SALE, CONDO, 90141343, 1088, 3, 1, # 3, 4, 9, 5252019000, true, false, -1, false
118-118R Homes Ave #2, 118-118R Homes Ave #2, 02122, Dorchester, MA, 42.303986, -71.06644, 625000, FOR_SALE, CONDO, 384297293, 1064, 3, 2, # 2, 3, 9, 4128819000, true, false, -1, false
1515 Commonwealth Ave #311, 1515 Commonwealth Ave #311, 02135, Brighton, MA, 42.348225, -71.13995, 1482000, FOR_SALE, CONDO, 441824751, 1246, 2, 2, # 311, 9, 4, 413619000, true, false, -1, false
98 F St, 98 F St, 02127, South Boston, MA, 42.33579, -71.04919, 2649000, FOR_SALE, SINGLE_FAMILY, 59151402, 2943, 4, 4, , 5, 1, 5684019000, true, false, -1, false
140 Shawmut Ave #2A, 140 Shawmut Ave #2A, 02118, Boston, MA, 42.345963, -71.06578, 1150000, FOR_SALE, CONDO, 2078195948, 1200, 2, 2, # 2A, 10, 7, 3956019000, true, false, -1, false
18 Fernboro St, 18 Fernboro St, 02121, Dorchester, MA, 42.311066, -71.07723, 1337500, FOR_SALE, MULTI_FAMILY, 59103567, 4167, 14, 6, , 8, 4, 3178419000, true, false, -1, false
18 Medfield St APT 6, 18 Medfield St APT 6, 02215, Boston, MA, 42.345314, -71.105415, 855000, FOR_SALE, CONDO, 59172235, 961, 2, 1, Apt 6, 5, 9, 2141619000, true, false, -1, false
509 E 2nd St #1, 509 E 2nd St #1, 02127, Boston, MA, 42.337097, -71.04304, 1249000, FOR_SALE, CONDO, 2120313073, 1685, 2, 2, # 1, 2, 5, 2746419000, true, false, -1, false
9 Hadwin Way #0, 9 Hadwin Way #0, 02131, Boston, MA, 42.28001, -71.118225, 649000, FOR_SALE, TOWNHOUSE, 2099895772, 1382, 3, 2, # 0, 4, 9, 10695219000, true, false, -1, false
25 Rowell St, 25 Rowell St, 02125, Dorchester, MA, 42.31395, -71.06418, 1500000, FOR_SALE, MULTI_FAMILY, 59108582, 3096, 6, 3, , 10, 6, 500019000, true, false, -1, false
90 Havre St #3, 90 Havre St #3, 02128, Boston, MA, 42.37198, -71.03949, 569000, FOR_SALE, CONDO, 339517840, 867, 2, 1, # 3, 2, 8, 500019000, true, false, -1, false
12 Kilsyth Ter APT 23, 12 Kilsyth Ter APT 23, 02135, Brighton, MA, 42.3383, -71.147995, 469000, FOR_SALE, CONDO, 59093543, 713, 1, 1, Apt 23, 5, 1, 1882419000, true, false, -1, false
273 Princeton St FLOOR 3, 273 Princeton St FLOOR 3, 02128, Boston, MA, 42.37983, -71.02933, 450000, FOR_SALE, CONDO, 2078315306, 694, 2, 1, Floor 3, 4, 3, 2832819000, true, false, -1, false
51 Beech Glen St #2, 51 Beech Glen St #2, 02119, Roxbury, MA, 42.32445, -71.09525, 499500, FOR_SALE, CONDO, 59184963, 882, 2, 1, # 2, 4, 5, 1968819000, true, false, -1, false
135 Neponset Ave APT 24, 135 Neponset Ave APT 24, 02122, Dorchester, MA, 42.293842, -71.052025, 324900, FOR_SALE, CONDO, 81963684, 618, 1, 1, Apt 24, 10, 2, 2228019000, true, false, -1, false
75 Webster St, 75 Webster St, 02128, East Boston, MA, 42.367, -71.03788, 1200000, FOR_SALE, MULTI_FAMILY, 59121346, 2817, 5, 3, , 10, 10, 1191219000, true, false, -1, false
874 E 6th St #2, 874 E 6th St #2, 02127, Boston, MA, 42.333534, -71.02598, 1299000, FOR_SALE, CONDO, 2068403812, 1453, 2, 2, # 2, 2, 1, 1623219000, true, false, -1, false
14 Cazenove St, 14 Cazenove St, 02116, Boston, MA, 42.347187, -71.07256, 2899000, FOR_SALE, SINGLE_FAMILY, 59168822, 1863, 3, 4, , 5, 5, 3610419000, true, false, -1, false
74 Commonwealth Ave APT 10, 74 Commonwealth Ave APT 10, 02116, Boston, MA, 42.352287, -71.0751, 998000, FOR_SALE, CONDO, 87793233, 871, 1, 1, Apt 10, 8, 3, 9485619000, true, false, -1, false
386 Commonwealth Ave APT 3, 386 Commonwealth Ave APT 3, 02215, Boston, MA, 42.348587, -71.08987, 799900, FOR_SALE, CONDO, 59179018, 770, 2, 1, Apt 3, 7, 8, 5856819000, true, false, -1, false
519 Columbus Ave APT 3, 519 Columbus Ave APT 3, 02118, Boston, MA, 42.34218, -71.08013, 895000, FOR_SALE, TOWNHOUSE, 59182927, 658, 1, 1, Apt 3, 6, 3, 4128819000, true, false, -1, false
3 Parley Vale APT 2, 3 Parley Vale APT 2, 02130, Jamaica Plain, MA, 42.314888, -71.111984, 1075000, FOR_SALE, CONDO, 59132990, 1699, 3, 2, Apt 2, 9, 5, 413619000, true, false, -1, false
77 West St, 77 West St, 02136, Hyde Park, MA, 42.2598, -71.11894, 715000, FOR_SALE, SINGLE_FAMILY, 59126480, 2086, 4, 2, , 8, 5, 413619000, true, false, -1, false
16 Mosgrove Ave, 16 Mosgrove Ave, 02131, Roslindale, MA, 42.291996, -71.12314, 799900, FOR_SALE, SINGLE_FAMILY, 59144887, 1494, 4, 2, , 3, 9, 586419000, true, false, -1, false
50-56 Broadlawn Park APT 105, 50-56 Broadlawn Park APT 105, 02467, Chestnut Hill, MA, 42.302517, -71.164116, 489000, FOR_SALE, CONDO, 59154930, 1164, 2, 2, Apt 105, 9, 5, 932019000, true, false, -1, false
375 Baker St, 375 Baker St, 02132, West Roxbury, MA, 42.282684, -71.16898, 899000, FOR_SALE, SINGLE_FAMILY, 59158722, 1449, 3, 2, , 8, 6, 500019000, true, false, -1, false
168 Newton St APT 5, 168 Newton St APT 5, 02135, Brighton, MA, 42.355656, -71.168785, 589000, FOR_SALE, CONDO, 71505274, 1053, 3, 2, Apt 5, 5, 1, 932019000, true, false, -1, false
14 Clarendon St APT 402, 14 Clarendon St APT 402, 02116, Boston, MA, 42.344597, -71.07243, 1449000, FOR_SALE, CONDO, 59165079, 1074, 3, 2, Apt 402, 9, 5, 1018419000, true, false, -1, true
4 Gloucester St, 4 Gloucester St, 02115, Boston, MA, 42.3514, -71.08547, 19995000, FOR_SALE, SINGLE_FAMILY, 63711261, 9924, 7, 8, , 6, 3, 2055219000, true, false, -1, false
177 Cowper St, 177 Cowper St, 02128, East Boston, MA, 42.38197, -71.01343, 400000, FOR_SALE, SINGLE_FAMILY, 59120903, 1120, 3, 1, , 6, 5, 1018419000, true, false, -1, false
11 Chestnut St, 11 Chestnut St, 02108, Boston, MA, 42.357876, -71.06675, 9200000, FOR_SALE, SINGLE_FAMILY, 59174917, 6596, 4, 6, , 10, 8, 16829619000, true, false, -1, false
59 Lanark Rd APT 9, 59 Lanark Rd APT 9, 02135, Brighton, MA, 42.340054, -71.14646, 499000, FOR_SALE, CONDO, 59089684, 767, 2, 1, Apt 9, 8, 3, 413619000, true, false, -1, false
36 Mount Ida Rd #3, 36 Mount Ida Rd #3, 02122, Dorchester, MA, 42.305862, -71.06466, 354500, FOR_SALE, CONDO, 59102345, 1320, 3, 1, # 3, 5, 4, 586419000, true, false, -1, false
63 Gould St, 63 Gould St, 02132, West Roxbury, MA, 42.271088, -71.16767, 649900, FOR_SALE, SINGLE_FAMILY, 59159977, 1168, 2, 1, , 5, 9, 327219000, true, false, -1, false
18 Gloria Rd, 18 Gloria Rd, 02132, West Roxbury, MA, 42.28742, -71.14477, 899000, FOR_SALE, SINGLE_FAMILY, 59154301, 2216, 3, 2, , 6, 8, 413619000, true, false, -1, false
46 Perham St, 46 Perham St, 02132, West Roxbury, MA, 42.281574, -71.1629, 849900, FOR_SALE, SINGLE_FAMILY, 59158158, 1439, 4, 2, , 2, 5, 500019000, true, false, -1, false
59 Hemlock Rd, 59 Hemlock Rd, 02132, West Roxbury, MA, 42.270046, -71.17141, 600000, FOR_SALE, SINGLE_FAMILY, 59160487, 892, 2, 2, , 6, 2, 5770419000, true, false, -1, true
30-32 Goodrich Rd, 30-32 Goodrich Rd, 02130, Jamaica Plain, MA, 42.315983, -71.115906, 1695000, FOR_SALE, MULTI_FAMILY, 190013487, 4340, 6, 3, , 1, 8, 327219000, true, false, -1, false
21 Auburn St, 21 Auburn St, 02129, Charlestown, MA, 42.38093, -71.06919, 1640000, FOR_SALE, SINGLE_FAMILY, 59100273, 1683, 3, 2, , 7, 2, 1018419000, true, false, -1, false
5 Northdale Ter, 5 Northdale Ter, 02132, West Roxbury, MA, 42.268932, -71.16714, 765000, FOR_SALE, SINGLE_FAMILY, 59161589, 1785, 4, 2, , 6, 9, 413619000, true, false, -1, false
47 Harvard St #PS104, 47 Harvard St #PS104, 02129, Charlestown, MA, 42.37344, -71.06301, 175000, FOR_SALE, CONDO, 441824749, 153, 0, 0, # PS104, 5, 7, 413619000, true, false, -1, false
27 Ainsworth St, 27 Ainsworth St, 02131, Roslindale, MA, 42.288795, -71.140045, 1149000, FOR_SALE, MULTI_FAMILY, 59212997, 3420, 6, 3, , 2, 1, 413619000, true, false, -1, false
36 Lime St, 36 Lime St, 02108, Boston, MA, 42.35705, -71.07148, 17995000, FOR_SALE, SINGLE_FAMILY, 59172800, 5875, 5, 7, , 4, 6, 17348019000, true, false, -1, false
93 Beacon St, 93 Beacon St, 02108, Boston, MA, 42.355923, -71.07246, 19995000, FOR_SALE, SINGLE_FAMILY, 2106270534, 12470, 18, 14, , 7, 6, 2919219000, true, false, -1, false
60 Callender St, 60 Callender St, 02124, Dorchester, MA, 42.288685, -71.08108, 599900, FOR_SALE, SINGLE_FAMILY, 59116413, 1744, 5, 2, , 5, 10, 327219000, true, false, -1, false
31 Newton St, 31 Newton St, 02135, Brighton, MA, 42.356834, -71.16391, 750000, FOR_SALE, MULTI_FAMILY, 59094742, 2225, 4, 3, , 1, 8, 932019000, true, false, -1, false
761 Washington St #3, 761 Washington St #3, 02124, Dorchester Center, MA, 42.350212, -71.06348, 639900, FOR_SALE, CONDO, 2061942592, 1206, 3, 2, # 3, 1, 7, 7671219000, true, false, -1, false
44 Percival St, 44 Percival St, 02122, Dorchester, MA, 42.306488, -71.06348, 674900, FOR_SALE, SINGLE_FAMILY, 59108771, 1530, 3, 2, , 8, 7, 327219000, true, false, -1, false
428 E 8th St #1, 428 E 8th St #1, 02127, South Boston, MA, 42.33149, -71.04376, 779000, FOR_SALE, CONDO, 59148653, 1039, 2, 2, # 1, 2, 9, 500019000, true, false, -1, false
320 W 2nd St APT 206, 320 W 2nd St APT 206, 02127, Boston, MA, 42.339, -71.04733, 475000, FOR_SALE, CONDO, 2084111790, 429, 1, 1, Apt 206, 9, 7, 1623219000, true, false, -1, false
783 Washington St #1, 783 Washington St #1, 02124, Dorchester Center, MA, 42.349953, -71.06379, 685000, FOR_SALE, CONDO, 2119986232, 1500, 3, 2, # 1, 9, 7, 500019000, true, false, -1, false
358 Marlborough St, 358 Marlborough St, 02115, Boston, MA, 42.350643, -71.086205, 12500000, FOR_SALE, SINGLE_FAMILY, 2094983464, 5145, 5, 7, , 3, 8, 327219000, true, false, -1, false
131 Readville St, 131 Readville St, 02136, Hyde Park, MA, 42.240482, -71.13579, 699000, FOR_SALE, SINGLE_FAMILY, 59129184, 1720, 3, 2, , 3, 2, 586419000, true, false, -1, false
31 Homestead St #2, 31 Homestead St #2, 02121, Boston, MA, 42.313126, -71.0931, 337250, FOR_SALE, CONDO, 59101642, 1326, 2, 2, # 2, 7, 1, 3264819000, true, false, -1, false
4 Abbot St, 4 Abbot St, 02124, Dorchester Center, MA, 42.297714, -71.086426, 800000, FOR_SALE, MULTI_FAMILY, 2053396664, 3297, 6, 4, , 5, 9, 586419000, true, false, -1, false
8 Jess St, 8 Jess St, 02130, Boston, MA, 42.31524, -71.10341, 804900, FOR_SALE, SINGLE_FAMILY, 59133333, 1752, 3, 2, , 2, 6, 240819000, true, false, -1, false
335 Norfolk Ave, 335 Norfolk Ave, 02125, Dorchester, MA, 42.321777, -71.06638, 429000, FOR_SALE, SINGLE_FAMILY, 59104290, 1216, 3, 2, , 9, 3, 2055219000, true, false, -1, false
636 Beacon St APT 205, 636 Beacon St APT 205, 02215, Boston, MA, 42.34959, -71.09526, 529000, FOR_SALE, CONDO, 2101182075, 504, 1, 1, Apt 205, 3, 1, 500019000, true, false, -1, false
86 Mount Vernon St, 86 Mount Vernon St, 02108, Boston, MA, 42.357895, -71.068375, 9950000, FOR_SALE, SINGLE_FAMILY, 59212077, 4492, 5, 6, , 8, 4, 5424819000, true, false, -1, false
125 B St UNIT 2A, 125 B St UNIT 2A, 02127, South Boston, MA, 42.341278, -71.053085, 919000, FOR_SALE, CONDO, 82233316, 1067, 2, 2, Unit 2A, 7, 6, 413619000, true, false, -1, false
38 Pleasant St APT 2, 38 Pleasant St APT 2, 02125, Dorchester, MA, 42.31606, -71.05902, 670000, FOR_SALE, CONDO, 59101822, 1791, 3, 2, Apt 2, 10, 5, 240819000, true, false, -1, false
30 Monument Sq APT 202, 30 Monument Sq APT 202, 02129, Charlestown, MA, 42.37696, -71.06165, 1199000, FOR_SALE, CONDO, 59162885, 1274, 2, 1, Apt 202, 4, 4, 413619000, true, false, -1, false
25 Lennon Ct APT 28, 25 Lennon Ct APT 28, 02127, South Boston, MA, 42.333107, -71.02685, 529000, FOR_SALE, CONDO, 59149868, 714, 2, 1, Apt 28, 4, 9, 1018419000, true, false, -1, false
362 Silver St, 362 Silver St, 02127, South Boston, MA, 42.335083, -71.045395, 799000, FOR_SALE, SINGLE_FAMILY, 59151031, 1582, 4, 2, , 8, 4, 413619000, true, false, -1, false
92 Corey St #2, 92 Corey St #2, 02132, West Roxbury, MA, 42.287, -71.155975, 890000, FOR_SALE, CONDO, 441859226, 2430, 4, 2, # 2, 1, 10, 327219000, true, false, -1, false
40 Pinckney St, 40 Pinckney St, 02114, Boston, MA, 42.358784, -71.06678, 3900000, FOR_SALE, SINGLE_FAMILY, 59174457, 2676, 5, 5, , 9, 3, 240819000, true, false, -1, false
34-34 Grove Sq #4, 34-34 Grove Sq #4, 02114, Boston, MA, 42.36002, -71.06852, 499999, FOR_SALE, CONDO, 400807038, 375, 1, 1, # 4, 6, 10, 8276019000, true, false, -1, false
35 S Russell St, 35 S Russell St, 02114, Boston, MA, 42.36016, -71.0661, 2650000, FOR_SALE, SINGLE_FAMILY, 59169445, 2421, 4, 3, , 5, 8, 10004019000, true, false, -1, false
87 E Brookline St #3, 87 E Brookline St #3, 02118, Boston, MA, 42.33737, -71.07, 1095000, FOR_SALE, CONDO, 67094795, 1330, 3, 2, # 3, 2, 6, 327219000, true, false, -1, false
99 Tremont At Oak Sq #415, 99 Tremont At Oak Sq #415, 02135, Brighton, MA, 42.35711, -71.06174, 845000, FOR_SALE, CONDO, 439806999, 1149, 2, 2, # 415, 3, 9, 4474419000, true, false, -1, false
307 Hyde Park Ave #1, 307 Hyde Park Ave #1, 02130, Jamaica Plain, MA, 42.290924, -71.118324, 479000, FOR_SALE, CONDO, 90136059, 910, 2, 1, # 1, 3, 8, 327219000, true, false, -1, false
38 Allston St #PENTHOUSE, 38 Allston St #PENTHOUSE, 02129, Charlestown, MA, 42.380863, -71.06331, 929000, FOR_SALE, CONDO, 441788454, 939, 2, 2, # PENTHOUSE, 6, 5, 586419000, true, false, -1, false
4 Hagar St UNIT 1, 4 Hagar St UNIT 1, 02130, Jamaica Plain, MA, 42.31069, -71.11596, 900000, FOR_SALE, CONDO, 318226186, 1148, 3, 2, Unit 1, 6, 5, 327219000, true, false, -1, false
79 Butler St, 79 Butler St, 02124, Dorchester, MA, 42.27187, -71.062675, 999900, FOR_SALE, MULTI_FAMILY, 59118427, 2207, 5, 2, , 8, 2, 327219000, true, false, -1, false
85 Child St #2, 85 Child St #2, 02130, Jamaica Plain, MA, 42.306812, -71.111824, 599000, FOR_SALE, CONDO, 59162263, 863, 2, 1, # 2, 9, 2, 413619000, true, false, -1, false
18 Farquhar St, 18 Farquhar St, 02131, Roslindale, MA, 42.289165, -71.13568, 1320000, FOR_SALE, MULTI_FAMILY, 59142559, 2701, 4, 2, , 7, 6, 500019000, true, false, -1, false
765 E Broadway #1, 765 E Broadway #1, 02127, Boston, MA, 42.335426, -71.03465, 1069000, FOR_SALE, CONDO, 2063629346, 1608, 4, 3, # 1, 9, 7, 500019000, true, false, -1, false
425 S Huntington Ave APT 14, 425 S Huntington Ave APT 14, 02130, Jamaica Plain, MA, 42.320213, -71.112144, 469900, FOR_SALE, CONDO, 59132134, 820, 2, 1, Apt 14, 2, 10, 1018419000, true, false, -1, false
88 Saint Botolph St APT 5, 88 Saint Botolph St APT 5, 02116, Boston, MA, 42.34507, -71.080246, 1449000, FOR_SALE, CONDO, 59179267, 1210, 2, 2, Apt 5, 7, 4, 413619000, true, false, -1, false
32 Robinwood Ave APT 3, 32 Robinwood Ave APT 3, 02130, Jamaica Plain, MA, 42.316505, -71.11183, 690000, FOR_SALE, CONDO, 59131026, 1285, 2, 1, Apt 3, 2, 6, 413619000, true, false, -1, false
74 Dale St, 74 Dale St, 02119, Roxbury, MA, 42.321495, -71.08667, 800000, FOR_SALE, MULTI_FAMILY, 59188151, 2685, 6, 2, , 8, 5, 327219000, true, false, -1, false
34 Garden St #1, 34 Garden St #1, 02114, Boston, MA, 42.36024, -71.06682, 629000, FOR_SALE, CONDO, 63041730, 485, 1, 1, # 1, 1, 8, 845619000, true, false, -1, false
381 Beacon St, 381 Beacon St, 02116, Boston, MA, 42.351894, -71.08462, 6990000, FOR_SALE, SINGLE_FAMILY, 59169513, 5165, 5, 4, , 9, 4, 500019000, true, false, -1, false
1 Dunreath St #C, 1 Dunreath St #C, 02119, Boston, MA, 42.322636, -71.08161, 485000, FOR_SALE, TOWNHOUSE, 60112981, 1279, 3, 2, # C, 3, 3, 6375219000, true, false, -1, false
110 112th St #2, 110 112th St #2, 02109, Boston, MA, 42.361908, -71.05298, 712000, FOR_SALE, CONDO, 441868368, 908, 1, 1, # 2, 6, 2, 240819000, true, false, -1, false
200 Beech St, 200 Beech St, 02131, Boston, MA, 42.28192, -71.142296, 1379900, FOR_SALE, SINGLE_FAMILY, 59144237, 2500, 5, 3, , 3, 3, 500019000, true, false, -1, false
57 Broadlawn Park APT 21A, 57 Broadlawn Park APT 21A, 02467, Chestnut Hill, MA, 42.302647, -71.16534, 399000, FOR_SALE, CONDO, 59155146, 759, 1, 1, Apt 21A, 3, 4, 3869619000, true, false, -1, false
49-51 Callender St, 49-51 Callender St, 02124, Dorchester Center, MA, 42.289124, -71.08071, 689995, FOR_SALE, MULTI_FAMILY, 2056983061, 2250, 6, 2, , 8, 6, 154419000, true, false, -1, false
37 Msgr Patrick J Lydon Way, 37 Msgr Patrick J Lydon Way, 02124, Dorchester, MA, 42.28845, -71.061516, 999950, FOR_SALE, MULTI_FAMILY, 59113080, 3480, 9, 3, , 2, 10, 672819000, true, false, -1, false
4 Hill St, 4 Hill St, 02129, Charlestown, MA, 42.381256, -71.064415, 1750000, FOR_SALE, SINGLE_FAMILY, 59099715, 2484, 5, 3, , 10, 5, 932019000, true, false, -1, false
599 Tremont St APT 6, 599 Tremont St APT 6, 02118, Boston, MA, 42.343197, -71.07343, 699000, FOR_SALE, CONDO, 59211072, 643, 1, 1, Apt 6, 10, 1, 327219000, true, false, -1, false
6 Newbury St #501-502, 6 Newbury St #501-502, 02116, Boston, MA, 42.352352, -71.071625, 19250000, FOR_SALE, CONDO, 440974751, 5992, 5, 7, # 501-502, 7, 2, 1709619000, true, false, -1, false
330 Summit Ave UNIT 101, 330 Summit Ave UNIT 101, 02135, Brighton, MA, 42.34543, -71.14075, 599000, FOR_SALE, CONDO, 71505136, 1200, 2, 2, Unit 101, 8, 7, 327219000, true, false, -1, false
1515 Vfw Pkwy #30, 1515 Vfw Pkwy #30, 02132, West Roxbury, MA, 42.267612, -71.17258, 105000, FOR_SALE, MANUFACTURED, 438788126, 370, 1, 1, # 30, 9, 3, 5856819000, true, false, -1, false
14 Robey St UNIT 14, 14 Robey St UNIT 14, 02119, Roxbury, MA, 42.322575, -71.06809, 539000, FOR_SALE, TOWNHOUSE, 440588878, 1240, 3, 2, Unit 14, 4, 1, 759219000, true, false, -1, false
32 Castleton St, 32 Castleton St, 02130, Jamaica Plain, MA, 42.323235, -71.114685, 1650000, FOR_SALE, SINGLE_FAMILY, 59131400, 2353, 4, 3, , 5, 7, 2314419000, true, false, -1, false
29 Bourne St, 29 Bourne St, 02130, Jamaica Plain, MA, 42.292103, -71.11436, 849000, FOR_SALE, SINGLE_FAMILY, 59136229, 1678, 3, 1, , 6, 3, 3351219000, true, false, -1, false
529 Poplar St, 529 Poplar St, 02131, Roslindale, MA, 42.2722, -71.13178, 600000, FOR_SALE, SINGLE_FAMILY, 59146443, 1221, 3, 1, , 10, 3, 154419000, true, false, -1, false
108 Woodley Ave, 108 Woodley Ave, 02132, West Roxbury, MA, 42.262817, -71.150185, 835000, FOR_SALE, SINGLE_FAMILY, 59161096, 2200, 5, 2, , 2, 10, 413619000, true, false, -1, false
158 Street North End #6, 158 Street North End #6, 02109, Boston, MA, 42.362568, -71.05232, 1350000, FOR_SALE, CONDO, 2056032233, 1354, 3, 2, # 6, 6, 6, 932019000, true, false, -1, false
244 Beacon St APT 1B, 244 Beacon St APT 1B, 02116, Boston, MA, 42.35375, -71.0797, 1379000, FOR_SALE, CONDO, 59212756, 1175, 3, 2, Apt 1B, 10, 1, 240819000, true, false, -1, false
71 W Cedar St #4, 71 W Cedar St #4, 02114, Boston, MA, 42.36002, -71.06995, 1450000, FOR_SALE, CONDO, 441866085, 1264, 2, 2, # 4, 1, 7, 240819000, true, false, -1, false
12 Stoneholm St APT 430, 12 Stoneholm St APT 430, 02115, Boston, MA, 42.34582, -71.08863, 479000, FOR_SALE, CONDO, 81857673, 400, 1, 1, Apt 430, 6, 6, 327219000, true, false, -1, false
425 Beacon St APT 1, 425 Beacon St APT 1, 02115, Boston, MA, 42.351368, -71.0865, 1725000, FOR_SALE, CONDO, 59167129, 1248, 3, 2, Apt 1, 5, 3, 500019000, true, false, -1, false
247 Beacon St APT 1, 247 Beacon St APT 1, 02116, Boston, MA, 42.35358, -71.0785, 679000, FOR_SALE, CONDO, 59166709, 860, 1, 2, Apt 1, 4, 4, 8362419000, true, false, -1, false
2855-2859 Washington St #8, 2855-2859 Washington St #8, 02119, Roxbury, MA, 42.3208, -71.09374, 569900, FOR_SALE, TOWNHOUSE, 67081276, 1562, 3, 3, # 8, 1, 4, 413619000, true, false, -1, false
165 Cornell St #2, 165 Cornell St #2, 02131, Roslindale, MA, 42.27865, -71.13391, 699000, FOR_SALE, CONDO, 2077253181, 2393, 4, 2, # 2, 5, 6, 327219000, true, false, -1, false
667 E 7th St #1, 667 E 7th St #1, 02127, South Boston, MA, 42.33214, -71.03368, 799000, FOR_SALE, CONDO, 87794231, 993, 2, 2, # 1, 3, 10, 413619000, true, false, -1, false
51 Malcolm, 51 Malcolm, 01230, Great Barrington, MA, 42.360085, -71.05888, 1200000, FOR_SALE, SINGLE_FAMILY, 441734352, 1616, 4, 3, , 6, 1, 932019000, true, false, -1, false
53 Chestnut St, 53 Chestnut St, 02108, Boston, MA, 42.357372, -71.06894, 5450000, FOR_SALE, SINGLE_FAMILY, 59174812, 4620, 5, 5, , 10, 5, 1364019000, true, false, -1, false
4-4R Melville Ave, 4-4R Melville Ave, 02124, Dorchester Center, MA, 42.294132, -71.07109, 789000, FOR_SALE, SINGLE_FAMILY, 440810796, 1250, 2, 2, , 4, 10, 2141619000, true, false, -1, false
5-7 Everett Ave #2, 5-7 Everett Ave #2, 02125, Dorchester, MA, 42.3159, -71.06307, 359900, FOR_SALE, CONDO, 352135269, 598, 2, 1, # 2, 1, 6, 11213619000, true, false, -1, false
2 W 6th St #302, 2 W 6th St #302, 02127, South Boston, MA, 42.339165, -71.0564, 750000, FOR_SALE, CONDO, 295324458, 1144, 2, 2, # 302, 6, 9, 3351219000, true, false, -1, false
66 Round Hill St, 66 Round Hill St, 02130, Jamaica Plain, MA, 42.32464, -71.107574, 749999, FOR_SALE, SINGLE_FAMILY, 59134056, 1728, 3, 1, , 4, 7, 1104819000, true, false, -1, false
350 W 2nd St #301, 350 W 2nd St #301, 02127, Boston, MA, 42.338604, -71.046486, 879000, FOR_SALE, CONDO, 441828562, 1467, 2, 2, # 301, 6, 3, 413619000, true, false, -1, false
23 Prescott St, 23 Prescott St, 02129, Charlestown, MA, 42.37296, -71.06374, 1800000, FOR_SALE, SINGLE_FAMILY, 59100019, 1702, 3, 3, , 10, 5, 1450419000, true, false, -1, false
104 Norfolk St, 104 Norfolk St, 02124, Dorchester, MA, 42.288284, -71.07588, 849900, FOR_SALE, SINGLE_FAMILY, 59110596, 3017, 6, 4, , 5, 9, 1536819000, true, false, -1, false
22 Lyndeboro St, 22 Lyndeboro St, 02129, Charlestown, MA, 42.379765, -71.070366, 1099000, FOR_SALE, SINGLE_FAMILY, 59100198, 1400, 3, 3, , 9, 4, 2228019000, true, false, -1, false
143-171 Hyde Park Ave UNIT 155A, 143-171 Hyde Park Ave UNIT 155A, 02130, Jamaica Plain, MA, 42.29589, -71.11672, 875000, FOR_SALE, TOWNHOUSE, 318227135, 1659, 3, 3, Unit 155A, 9, 10, 500019000, true, false, -1, false
1531 River St #1531, 1531 River St #1531, 02136, Hyde Park, MA, 42.24971, -71.13115, 649999, FOR_SALE, TOWNHOUSE, 2077607198, 1358, 3, 2, # 1531, 8, 5, 586419000, true, false, -1, false
728 E 8th St #2, 728 E 8th St #2, 02127, South Boston, MA, 42.331654, -71.03236, 545000, FOR_SALE, CONDO, 59163070, 604, 2, 1, # 2, 7, 5, 154419000, true, false, -1, false
53 Lexington St #3, 53 Lexington St #3, 02128, Boston, MA, 42.37747, -71.03781, 559000, FOR_SALE, CONDO, 333605285, 742, 2, 2, # 3, 7, 5, 327219000, true, false, -1, false
51 Hancock St APT 11, 51 Hancock St APT 11, 02114, Boston, MA, 42.35975, -71.06454, 600000, FOR_SALE, CONDO, 59163157, 437, 1, 1, Apt 11, 3, 6, 14237619000, true, false, -1, false
290 Columbus Ave UNIT 3, 290 Columbus Ave UNIT 3, 02116, Boston, MA, 42.346672, -71.0738, 499000, FOR_SALE, CONDO, 71546531, 316, 1, 1, Unit 3, 4, 4, 240819000, true, false, -1, false
43 Commercial Wharf APT 8, 43 Commercial Wharf APT 8, 02110, Boston, MA, 42.36217, -71.050186, 2295000, FOR_SALE, CONDO, 59174557, 1700, 2, 2, Apt 8, 6, 10, 5338419000, true, false, -1, false
39 Navarre St, 39 Navarre St, 02131, Roslindale, MA, 42.27716, -71.11766, 699000, FOR_SALE, SINGLE_FAMILY, 59144656, 1870, 3, 1, , 9, 7, 1018419000, true, false, -1, false
25 Crandall St, 25 Crandall St, 02131, Roslindale, MA, 42.280964, -71.12727, 849000, FOR_SALE, MULTI_FAMILY, 59144183, 2308, 6, 2, , 8, 8, 1191219000, true, false, -1, false
330 Beacon St #72, 330 Beacon St #72, 02116, Boston, MA, 42.35267, -71.083435, 2000000, FOR_SALE, CONDO, 441825566, 1196, 2, 2, # 72, 8, 4, 413619000, true, false, -1, false
714-718 Truman Hwy, 714-718 Truman Hwy, 02136, Hyde Park, MA, 42.251644, -71.119255, 959900, FOR_SALE, MULTI_FAMILY, 441888213, 2572, 6, 3, , 3, 10, 154419000, true, false, -1, false
286 Cambridge St APT 3, 286 Cambridge St APT 3, 02114, Boston, MA, 42.360973, -71.068146, 480000, FOR_SALE, CONDO, 2100637791, 435, 1, 1, Apt 3, 2, 5, 845619000, true, false, -1, false
328 W 3rd St #1, 328 W 3rd St #1, 02127, Boston, MA, 42.336792, -71.04525, 915000, FOR_SALE, CONDO, 339517505, 902, 2, 2, # 1, 1, 10, 413619000, true, false, -1, false
352 Blue Hill Ave UNIT 8, 352 Blue Hill Ave UNIT 8, 02121, Boston, MA, 42.31246, -71.08014, 464900, FOR_SALE, CONDO, 189975962, 1203, 4, 2, Unit 8, 4, 3, 2832819000, true, false, -1, false
19-21 Royal St #2, 19-21 Royal St #2, 02134, Allston, MA, 42.357597, -71.12971, 400000, FOR_SALE, CONDO, 2063017054, 537, 1, 1, # 2, 9, 2, 2919219000, true, false, -1, false
2 Chestnut Pl, 2 Chestnut Pl, 02135, Brighton, MA, 42.346626, -71.15147, 1400000, FOR_SALE, MULTI_FAMILY, 2081668240, 2550, 6, 6, , 4, 10, 327219000, true, false, -1, false
190 Orient Ave, 190 Orient Ave, 02128, East Boston, MA, 42.39069, -71.00784, 1249000, FOR_SALE, SINGLE_FAMILY, 59120481, 2923, 3, 2, , 9, 9, 240819000, true, false, -1, false
331 Bunker Hill St, 331 Bunker Hill St, 02129, Charlestown, MA, 42.381866, -71.06749, 2150000, FOR_SALE, SINGLE_FAMILY, 59099560, 3588, 4, 5, , 2, 7, 240819000, true, false, -1, false
351 Dorchester St UNIT 1, 351 Dorchester St UNIT 1, 02127, South Boston, MA, 42.330822, -71.055176, 415000, FOR_SALE, CONDO, 71489543, 620, 1, 1, Unit 1, 1, 9, 2141619000, true, false, -1, false
30 Concord Sq #1, 30 Concord Sq #1, 02118, Boston, MA, 42.341377, -71.0792, 4395000, FOR_SALE, CONDO, 441874257, 2497, 3, 4, # 1, 5, 4, 240819000, true, false, -1, false
338 Marlborough St APT 3, 338 Marlborough St APT 3, 02115, Boston, MA, 42.350826, -71.08546, 1195000, FOR_SALE, CONDO, 59167172, 836, 2, 2, Apt 3, 10, 1, 1018419000, true, false, -1, false
